[{"Altitude": 1.100000023841858, "DroneId": "Follower", "Latitude": 22.542813101860762, "LeftH": 0, "LeftV": 0, "Longitude": 113.9589019592357, "Pitch": 1.0, "RightH": 0, "RightV": 0, "Roll": 0.0, "Timestamp": 0, "Yaw": 0.0, "velocityX": 0.0, "velocityY": 0.0, "velocityZ": 0.0, "x": 0.0, "y": 0.0, "z": -1.0},
  {"Altitude": 1.100000023841858, "DroneId": "Follower", "Latitude": 22.54281310145507, "LeftH": 0, "LeftV": 0, "Longitude": 113.9589019592705, "Pitch": 1.0, "RightH": 0, "RightV": 0, "Roll": 0.0, "Timestamp": 161, "Yaw": 0.0, "velocityX": 0.0, "velocityY": 0.0, "velocityZ": 0.0, "x": 0.0, "y": 0.0, "z": -1.0},
  {"Altitude": 1.100000023841858, "DroneId": "Follower", "Latitude": 22.542813100659455, "LeftH": 0, "LeftV": 0, "Longitude": 113.95890195933865, "Pitch": 1.0, "RightH": 0, "RightV": 0, "Roll": 0.0, "Timestamp": 321, "Yaw": 0.0, "velocityX": 0.0, "velocityY": 0.0, "velocityZ": 0.0, "x": 0.0, "y": 0.0, "z": -1.0},
  {"Altitude": 1.100000023841858, "DroneId": "Follower", "Latitude": 22.54281309988606, "LeftH": 0, "LeftV": 0, "Longitude": 113.95890195940433, "Pitch": 1.0, "RightH": 0, "RightV": 0, "Roll": 0.0, "Timestamp": 481, "Yaw": 0.0, "velocityX": 0.0, "velocityY": 0.0, "velocityZ": 0.0, "x": 0.0, "y": 0.0, "z": -1.0},
  {"Altitude": 1.100000023841858, "DroneId": "Follower", "Latitude": 22.54281309960379, "LeftH": 0, "LeftV": 0, "Longitude": 113.95890195942592, "Pitch": -0.1, "RightH": 0, "RightV": 0, "Roll": 0.0, "Timestamp": 641, "Yaw": 0.0, "velocityX": 0.0, "velocityY": 0.0, "velocityZ": 0.0, "x": 0.0, "y": 0.0, "z": -1.0},
  {"Altitude": 1.100000023841858, "DroneId": "Follower", "Latitude": 22.542813148709875, "LeftH": 0, "LeftV": 0, "Longitude": 113.9589019553039, "Pitch": 0.0, "RightH": 0, "RightV": 0, "Roll": 0.0, "Timestamp": 801, "Yaw": 0.0, "velocityX": 0.0, "velocityY": 0.0, "velocityZ": 0.0, "x": 0.009999999776482582, "y": 0.0, "z": -1.0},
  {"Altitude": 1.100000023841858, "DroneId": "Follower", "Latitude": 22.54281327167742, "LeftH": 0, "LeftV": 0, "Longitude": 113.95890194407451, "Pitch": 0.6, "RightH": 0, "RightV": 0, "Roll": 0.0, "Timestamp": 961, "Yaw": 0.0, "velocityX": 0.0, "velocityY": 0.0, "velocityZ": 0.0, "x": 0.019999999552965164, "y": 0.0, "z": -1.0},
  {"Altitude": 1.100000023841858, "DroneId": "Follower", "Latitude": 22.542813343521654, "LeftH": 0, "LeftV": 0, "Longitude": 113.95890193735022, "Pitch": 1.2, "RightH": 0, "RightV": 0, "Roll": 0.0, "Timestamp": 1122, "Yaw": 0.0, "velocityX": 0.0, "velocityY": 0.0, "velocityZ": 0.0, "x": 0.029999999795109034, "y": 0.0, "z": -1.0},
  {"Altitude": 1.100000023841858, "DroneId": "Follower", "Latitude": 22.542813481103227, "LeftH": 0, "LeftV": 0, "Longitude": 113.95890192284475, "Pitch": 1.6, "RightH": 0, "RightV": 0, "Roll": 0.0, "Timestamp": 1282, "Yaw": 0.0, "velocityX": 0.0, "velocityY": 0.0, "velocityZ": 0.0, "x": 0.039999999571591616, "y": -0.010000000009313226, "z": -1.0},
  {"Altitude": 1.100000023841858, "DroneId": "Follower", "Latitude": 22.54281353837698, "LeftH": 0, "LeftV": 0, "Longitude": 113.9589019153461, "Pitch": 1.5, "RightH": 0, "RightV": 0, "Roll": 0.0, "Timestamp": 1442, "Yaw": 0.0, "velocityX": 0.0, "velocityY": 0.0, "velocityZ": 0.0, "x": 0.049999999813735485, "y": -0.010000000009313226, "z": -1.0},
  {"Altitude": 1.100000023841858, "DroneId": "Follower", "Latitude": 22.542813625516377, "LeftH": 0, "LeftV": 0, "Longitude": 113.95890190058813, "Pitch": 1.9, "RightH": 0, "RightV": 0, "Roll": 0.5, "Timestamp": 1603, "Yaw": 0.0, "velocityX": 0.0, "velocityY": 0.0, "velocityZ": 0.0, "x": 0.05999999959021807, "y": -0.010000000009313226, "z": -1.0},
  {"Altitude": 1.100000023841858, "DroneId": "Follower", "Latitude": 22.542813662588603, "LeftH": 0, "LeftV": 0, "Longitude": 113.95890190407579, "Pitch": 1.8, "RightH": 0, "RightV": 0, "Roll": 0.2, "Timestamp": 1763, "Yaw": 0.0, "velocityX": 0.0, "velocityY": 0.0, "velocityZ": 0.0, "x": 0.06999999983236194, "y": -0.010000000009313226, "z": -1.0},
  {"Altitude": 1.100000023841858, "DroneId": "Follower", "Latitude": 22.542813660091124, "LeftH": 0, "LeftV": 0, "Longitude": 113.9589019128561, "Pitch": 1.9, "RightH": 0, "RightV": 0, "Roll": 0.1, "Timestamp": 1924, "Yaw": 0.0, "velocityX": 0.0, "velocityY": 0.0, "velocityZ": 0.0, "x": 0.05999999959021807, "y": -0.010000000009313226, "z": -1.0},
  {"Altitude": 1.100000023841858, "DroneId": "Follower", "Latitude": 22.542813617117368, "LeftH": 0, "LeftV": 0, "Longitude": 113.95890193537446, "Pitch": 1.9, "RightH": 0, "RightV": 0, "Roll": 0.1, "Timestamp": 2084, "Yaw": 0.0, "velocityX": 0.0, "velocityY": 0.0, "velocityZ": 0.0, "x": 0.05999999959021807, "y": 0.0, "z": -1.0},
  {"Altitude": 1.100000023841858, "DroneId": "Follower", "Latitude": 22.542813575826592, "LeftH": 0, "LeftV": 0, "Longitude": 113.95890194852842, "Pitch": 1.3, "RightH": 0, "RightV": 0, "Roll": 0.1, "Timestamp": 2245, "Yaw": 0.0, "velocityX": 0.0, "velocityY": 0.0, "velocityZ": 0.0, "x": 0.05999999959021807, "y": 0.0, "z": -1.0},
  {"Altitude": 1.100000023841858, "DroneId": "Follower", "Latitude": 22.542813478804828, "LeftH": 0, "LeftV": 0, "Longitude": 113.95890197626471, "Pitch": 1.1, "RightH": 0, "RightV": 0, "Roll": -0.4, "Timestamp": 2404, "Yaw": 0.0, "velocityX": 0.0, "velocityY": 0.0, "velocityZ": 0.0, "x": 0.039999999571591616, "y": 0.0, "z": -1.0},
  {"Altitude": 1.100000023841858, "DroneId": "Follower", "Latitude": 22.54281337856444, "LeftH": 0, "LeftV": 0, "Longitude": 113.95890198556003, "Pitch": 1.1, "RightH": 0, "RightV": 0, "Roll": 0.0, "Timestamp": 2564, "Yaw": 0.0, "velocityX": 0.0, "velocityY": 0.0, "velocityZ": 0.0, "x": 0.029999999795109034, "y": 0.0, "z": -1.0},
  {"Altitude": 1.100000023841858, "DroneId": "Follower", "Latitude": 22.542813326103467, "LeftH": 0, "LeftV": 0, "Longitude": 113.95890198456499, "Pitch": 0.2, "RightH": 0, "RightV": 0, "Roll": 0.0, "Timestamp": 2724, "Yaw": 0.0, "velocityX": 0.0, "velocityY": 0.0, "velocityZ": 0.0, "x": 0.029999999795109034, "y": 0.0, "z": -1.0},
  {"Altitude": 1.100000023841858, "DroneId": "Follower", "Latitude": 22.54281325012707, "LeftH": 0, "LeftV": 0, "Longitude": 113.95890197867392, "Pitch": 0.2, "RightH": 0, "RightV": 0, "Roll": 0.0, "Timestamp": 2885, "Yaw": 0.0, "velocityX": 0.0, "velocityY": 0.0, "velocityZ": 0.0, "x": 0.019999999552965164, "y": 0.0, "z": -1.0},
  {"Altitude": 1.100000023841858, "DroneId": "Follower", "Latitude": 22.542813231463693, "LeftH": 0, "LeftV": 0, "Longitude": 113.95890197426915, "Pitch": 0.6, "RightH": 0, "RightV": 0, "Roll": 0.0, "Timestamp": 3045, "Yaw": 0.0, "velocityX": 0.0, "velocityY": 0.0, "velocityZ": 0.0, "x": 0.019999999552965164, "y": 0.0, "z": -1.0},
  {"Altitude": 1.100000023841858, "DroneId": "Follower", "Latitude": 22.54281321414334, "LeftH": 0, "LeftV": 0, "Longitude": 113.95890196400629, "Pitch": 0.3, "RightH": 0, "RightV": 0, "Roll": 0.0, "Timestamp": 3206, "Yaw": 0.0, "velocityX": 0.0, "velocityY": 0.0, "velocityZ": 0.0, "x": 0.019999999552965164, "y": 0.0, "z": -1.0},
  {"Altitude": 1.100000023841858, "DroneId": "Follower", "Latitude": 22.542813217303426, "LeftH": 0, "LeftV": 0, "Longitude": 113.95890195849469, "Pitch": 0.6, "RightH": 0, "RightV": 0, "Roll": 0.0, "Timestamp": 3365, "Yaw": 0.0, "velocityX": 0.0, "velocityY": 0.0, "velocityZ": 0.0, "x": 0.019999999552965164, "y": 0.0, "z": -1.0},
  {"Altitude": 1.100000023841858, "DroneId": "Follower", "Latitude": 22.54281324103427, "LeftH": 0, "LeftV": 0, "Longitude": 113.95890194718655, "Pitch": 0.9, "RightH": 0, "RightV": 0, "Roll": 0.0, "Timestamp": 3525, "Yaw": 0.0, "velocityX": 0.0, "velocityY": 0.0, "velocityZ": 0.0, "x": 0.019999999552965164, "y": 0.0, "z": -1.0},
  {"Altitude": 1.100000023841858, "DroneId": "Follower", "Latitude": 22.542813272481528, "LeftH": 0, "LeftV": 0, "Longitude": 113.95890193584826, "Pitch": 1.0, "RightH": 0, "RightV": 0, "Roll": 0.0, "Timestamp": 3686, "Yaw": 0.0, "velocityX": 0.0, "velocityY": 0.0, "velocityZ": 0.0, "x": 0.019999999552965164, "y": 0.0, "z": -1.0},
  {"Altitude": 1.100000023841858, "DroneId": "Follower", "Latitude": 22.542813289391923, "LeftH": 0, "LeftV": 0, "Longitude": 113.95890193024158, "Pitch": 1.0, "RightH": 0, "RightV": 0, "Roll": 0.0, "Timestamp": 3846, "Yaw": 0.0, "velocityX": 0.0, "velocityY": 0.0, "velocityZ": 0.0, "x": 0.019999999552965164, "y": 0.0, "z": -1.0},
  {"Altitude": 1.100000023841858, "DroneId": "Follower", "Latitude": 22.542813323223015, "LeftH": 0, "LeftV": 0, "Longitude": 113.95890191922277, "Pitch": 1.0, "RightH": 0, "RightV": 0, "Roll": 0.0, "Timestamp": 4006, "Yaw": 0.0, "velocityX": 0.0, "velocityY": 0.0, "velocityZ": 0.0, "x": 0.029999999795109034, "y": -0.010000000009313226, "z": -1.0},
  {"Altitude": 1.100000023841858, "DroneId": "Follower", "Latitude": 22.542813339655662, "LeftH": 0, "LeftV": 0, "Longitude": 113.95890191382487, "Pitch": -0.1, "RightH": 0, "RightV": 0, "Roll": 0.0, "Timestamp": 4166, "Yaw": 0.0, "velocityX": 0.0, "velocityY": 0.0, "velocityZ": 0.0, "x": 0.029999999795109034, "y": -0.010000000009313226, "z": -1.0},
  {"Altitude": 1.100000023841858, "DroneId": "Follower", "Latitude": 22.54281346042238, "LeftH": 0, "LeftV": 0, "Longitude": 113.95890190366895, "Pitch": -4.6, "RightH": 0, "RightV": 0, "Roll": 0.4, "Timestamp": 4327, "Yaw": 0.0, "velocityX": 0.10000000149011612, "velocityY": 0.0, "velocityZ": 0.0, "x": 0.039999999571591616, "y": -0.010000000009313226, "z": -1.0},
  {"Altitude": 1.100000023841858, "DroneId": "Follower", "Latitude": 22.542813899344406, "LeftH": 0, "LeftV": 0, "Longitude": 113.9589019105916, "Pitch": -12.5, "RightH": 0, "RightV": 0, "Roll": 0.2, "Timestamp": 4487, "Yaw": 0.0, "velocityX": 0.30000001192092896, "velocityY": 0.0, "velocityZ": 0.0, "x": 0.08999999985098839, "y": -0.010000000009313226, "z": -1.0},
  {"Altitude": 1.100000023841858, "DroneId": "Follower", "Latitude": 22.54281434914655, "LeftH": 0, "LeftV": 0, "Longitude": 113.95890192093545, "Pitch": -9.8, "RightH": 0, "RightV": 0, "Roll": 0.2, "Timestamp": 4648, "Yaw": 0.0, "velocityX": 0.5, "velocityY": 0.0, "velocityZ": 0.0, "x": 0.13999999966472387, "y": -0.010000000009313226, "z": -1.0},
  {"Altitude": 1.100000023841858, "DroneId": "Follower", "Latitude": 22.542815760922647, "LeftH": 0, "LeftV": 0, "Longitude": 113.95890194749947, "Pitch": -7.1, "RightH": 0, "RightV": 0, "Roll": 0.1, "Timestamp": 4808, "Yaw": 0.0, "velocityX": 0.8999999761581421, "velocityY": 0.0, "velocityZ": 0.0, "x": 0.2999999998137355, "y": -0.010000000009313226, "z": -1.0},
  {"Altitude": 1.100000023841858, "DroneId": "Follower", "Latitude": 22.542817735105295, "LeftH": 0, "LeftV": 0, "Longitude": 113.95890197897418, "Pitch": -14.2, "RightH": 0, "RightV": 0, "Roll": -0.5, "Timestamp": 4968, "Yaw": 0.0, "velocityX": 1.2000000476837158, "velocityY": 0.0, "velocityZ": 0.0, "x": 0.5199999995529652, "y": -0.010000000009313226, "z": -1.0},
  {"Altitude": 1.100000023841858, "DroneId": "Follower", "Latitude": 22.54281898973259, "LeftH": 0, "LeftV": 0, "Longitude": 113.95890198657554, "Pitch": 2.5, "RightH": 0, "RightV": 0, "Roll": -0.3, "Timestamp": 5128, "Yaw": -0.1, "velocityX": 1.399999976158142, "velocityY": 0.0, "velocityZ": 0.0, "x": 0.6599999996833503, "y": -0.010000000009313226, "z": -1.0},
  {"Altitude": 1.100000023841858, "DroneId": "Follower", "Latitude": 22.54282147826252, "LeftH": 0, "LeftV": 0, "Longitude": 113.95890198315526, "Pitch": -0.3, "RightH": 0, "RightV": 0, "Roll": -0.5, "Timestamp": 5288, "Yaw": 0.0, "velocityX": 1.2000000476837158, "velocityY": 0.0, "velocityZ": 0.0, "x": 0.9299999997019768, "y": -0.02000000001862645, "z": -1.0},
  {"Altitude": 1.100000023841858, "DroneId": "Follower", "Latitude": 22.54282265408892, "LeftH": 0, "LeftV": 0, "Longitude": 113.95890197278595, "Pitch": -0.9, "RightH": 0, "RightV": 0, "Roll": -0.2, "Timestamp": 5448, "Yaw": 0.0, "velocityX": 1.2999999523162842, "velocityY": 0.0, "velocityZ": 0.0, "x": 1.059999999590218, "y": -0.02000000001862645, "z": -1.0},
  {"Altitude": 1.100000023841858, "DroneId": "Follower", "Latitude": 22.542825082364985, "LeftH": 0, "LeftV": 0, "Longitude": 113.95890193492296, "Pitch": -13.0, "RightH": 0, "RightV": 0, "Roll": 0.0, "Timestamp": 5608, "Yaw": 0.0, "velocityX": 1.399999976158142, "velocityY": 0.0, "velocityZ": 0.0, "x": 1.3299999996088445, "y": -0.030000000027939677, "z": -1.0},
  {"Altitude": 1.100000023841858, "DroneId": "Follower", "Latitude": 22.54282814739633, "LeftH": 0, "LeftV": 0, "Longitude": 113.95890188981005, "Pitch": -20.0, "RightH": 0, "RightV": 0, "Roll": -0.3, "Timestamp": 5769, "Yaw": 0.0, "velocityX": 2.0, "velocityY": 0.0, "velocityZ": 0.0, "x": 1.6699999999254942, "y": -0.0400000000372529, "z": -1.0},
  {"Altitude": 1.100000023841858, "DroneId": "Follower", "Latitude": 22.54283015703192, "LeftH": 0, "LeftV": 0, "Longitude": 113.95890186106236, "Pitch": -15.2, "RightH": 0, "RightV": 0, "Roll": 0.1, "Timestamp": 5929, "Yaw": 0.0, "velocityX": 2.4000000953674316, "velocityY": 0.0, "velocityZ": 0.0, "x": 1.8899999996647239, "y": -0.05000000004656613, "z": -1.0},
  {"Altitude": 1.100000023841858, "DroneId": "Follower", "Latitude": 22.54283487188048, "LeftH": 0, "LeftV": 0, "Longitude": 113.95890180455953, "Pitch": 6.4, "RightH": 0, "RightV": 0, "Roll": 0.0, "Timestamp": 6090, "Yaw": 0.0, "velocityX": 2.700000047683716, "velocityY": 0.0, "velocityZ": 0.0, "x": 2.4099999996833503, "y": -0.060000000055879354, "z": -1.0},
  {"Altitude": 1.100000023841858, "DroneId": "Follower", "Latitude": 22.542837271448516, "LeftH": 0, "LeftV": 0, "Longitude": 113.95890177861742, "Pitch": -1.4, "RightH": 0, "RightV": 0, "Roll": 0.0, "Timestamp": 6250, "Yaw": 0.0, "velocityX": 2.5999999046325684, "velocityY": 0.0, "velocityZ": 0.0, "x": 2.6799999997019768, "y": -0.07000000006519258, "z": -1.0},
  {"Altitude": 1.100000023841858, "DroneId": "Follower", "Latitude": 22.54284216406344, "LeftH": 0, "LeftV": 0, "Longitude": 113.95890172639675, "Pitch": 7.7, "RightH": 0, "RightV": 0, "Roll": 0.1, "Timestamp": 6410, "Yaw": 0.0, "velocityX": 2.799999952316284, "velocityY": 0.0, "velocityZ": 0.0, "x": 3.2199999997392297, "y": -0.09000000008381903, "z": -1.0},
  {"Altitude": 1.100000023841858, "DroneId": "Follower", "Latitude": 22.542846866861446, "LeftH": 0, "LeftV": 0, "Longitude": 113.9589016757674, "Pitch": -3.8, "RightH": 0, "RightV": 0, "Roll": 0.0, "Timestamp": 6570, "Yaw": 0.0, "velocityX": 2.4000000953674316, "velocityY": 0.0, "velocityZ": 0.0, "x": 3.739999999757856, "y": -0.10000000009313226, "z": -1.0},
  {"Altitude": 1.100000023841858, "DroneId": "Follower", "Latitude": 22.542849100578746, "LeftH": 0, "LeftV": 0, "Longitude": 113.95890165020394, "Pitch": -2.4, "RightH": 0, "RightV": 0, "Roll": 0.5, "Timestamp": 6731, "Yaw": 0.0, "velocityX": 2.5, "velocityY": 0.0, "velocityZ": 0.0, "x": 3.989999999757856, "y": -0.10999999998603016, "z": -1.0},
  {"Altitude": 1.100000023841858, "DroneId": "Follower", "Latitude": 22.542853572498185, "LeftH": 0, "LeftV": 0, "Longitude": 113.95890162441962, "Pitch": -1.3, "RightH": 0, "RightV": 0, "Roll": 0.6, "Timestamp": 6891, "Yaw": 0.0, "velocityX": 2.299999952316284, "velocityY": 0.0, "velocityZ": 0.0, "x": 4.489999999757856, "y": -0.11999999999534339, "z": -1.0},
  {"Altitude": 1.100000023841858, "DroneId": "Follower", "Latitude": 22.542855718416565, "LeftH": 0, "LeftV": 0, "Longitude": 113.95890162940537, "Pitch": -18.9, "RightH": 0, "RightV": 0, "Roll": 0.1, "Timestamp": 7052, "Yaw": 0.0, "velocityX": 2.4000000953674316, "velocityY": 0.0, "velocityZ": 0.0, "x": 4.71999999973923, "y": -0.1300000000046566, "z": -1.0},
  {"Altitude": 1.100000023841858, "DroneId": "Follower", "Latitude": 22.542860794536676, "LeftH": 0, "LeftV": 0, "Longitude": 113.95890164541407, "Pitch": -9.4, "RightH": 0, "RightV": 0, "Roll": 0.3, "Timestamp": 7211, "Yaw": 0.0, "velocityX": 3.0999999046325684, "velocityY": 0.0, "velocityZ": 0.0, "x": 5.289999999571592, "y": -0.14000000001396984, "z": -1.0},
  {"Altitude": 1.100000023841858, "DroneId": "Follower", "Latitude": 22.542866706393546, "LeftH": 0, "LeftV": 0, "Longitude": 113.95890167247298, "Pitch": -19.0, "RightH": 0, "RightV": 0, "Roll": 0.1, "Timestamp": 7372, "Yaw": 0.0, "velocityX": 3.5, "velocityY": 0.0, "velocityZ": 0.0, "x": 5.939999999944121, "y": -0.15000000002328306, "z": -1.0},
  {"Altitude": 1.100000023841858, "DroneId": "Follower", "Latitude": 22.542869985910507, "LeftH": 0, "LeftV": 0, "Longitude": 113.95890168876618, "Pitch": -4.7, "RightH": 0, "RightV": 0, "Roll": 0.0, "Timestamp": 7533, "Yaw": 0.0, "velocityX": 3.700000047683716, "velocityY": 0.0, "velocityZ": 0.0, "x": 6.309999999590218, "y": -0.15000000002328306, "z": -1.0},
  {"Altitude": 1.100000023841858, "DroneId": "Follower", "Latitude": 22.542876620008492, "LeftH": 0, "LeftV": 0, "Longitude": 113.95890172143555, "Pitch": 17.3, "RightH": 0, "RightV": 0, "Roll": 0.1, "Timestamp": 7694, "Yaw": 0.0, "velocityX": 3.4000000953674316, "velocityY": 0.0, "velocityZ": 0.0, "x": 7.039999999571592, "y": -0.1600000000325963, "z": -1.0},
  {"Altitude": 1.100000023841858, "DroneId": "Follower", "Latitude": 22.542882274889564, "LeftH": 0, "LeftV": 0, "Longitude": 113.95890175397567, "Pitch": 16.3, "RightH": 0, "RightV": 0, "Roll": -0.2, "Timestamp": 7853, "Yaw": 0.0, "velocityX": 2.799999952316284, "velocityY": 0.0, "velocityZ": 0.0, "x": 7.669999999925494, "y": -0.17000000004190952, "z": -1.0},
  {"Altitude": 1.100000023841858, "DroneId": "Follower", "Latitude": 22.542884709074716, "LeftH": 0, "LeftV": 0, "Longitude": 113.95890176376189, "Pitch": 17.9, "RightH": 0, "RightV": 0, "Roll": 0.0, "Timestamp": 8013, "Yaw": 0.0, "velocityX": 2.5, "velocityY": 0.0, "velocityZ": 0.0, "x": 7.939999999944121, "y": -0.18000000005122274, "z": -1.0},
  {"Altitude": 1.100000023841858, "DroneId": "Follower", "Latitude": 22.542888739669323, "LeftH": 0, "LeftV": 0, "Longitude": 113.9589017741548, "Pitch": 18.9, "RightH": 0, "RightV": 0, "Roll": 0.0, "Timestamp": 8173, "Yaw": 0.0, "velocityX": 1.899999976158142, "velocityY": 0.0, "velocityZ": 0.0, "x": 8.379999999888241, "y": -0.19000000006053597, "z": -1.0},
  {"Altitude": 1.100000023841858, "DroneId": "Follower", "Latitude": 22.542890318747727, "LeftH": 0, "LeftV": 0, "Longitude": 113.95890177631588, "Pitch": 19.6, "RightH": 0, "RightV": 0, "Roll": 0.0, "Timestamp": 8333, "Yaw": 0.0, "velocityX": 1.5, "velocityY": 0.0, "velocityZ": 0.0, "x": 8.559999999590218, "y": -0.19000000006053597, "z": -1.0},
  {"Altitude": 1.100000023841858, "DroneId": "Follower", "Latitude": 22.542892573685496, "LeftH": 0, "LeftV": 0, "Longitude": 113.95890177782692, "Pitch": 19.8, "RightH": 0, "RightV": 0, "Roll": 0.4, "Timestamp": 8493, "Yaw": 0.0, "velocityX": 0.8999999761581421, "velocityY": 0.0, "velocityZ": 0.0, "x": 8.809999999590218, "y": -0.19000000006053597, "z": -1.0},
  {"Altitude": 1.100000023841858, "DroneId": "Follower", "Latitude": 22.54289324616946, "LeftH": 0, "LeftV": 0, "Longitude": 113.9589017839767, "Pitch": 19.7, "RightH": 0, "RightV": 0, "Roll": 0.3, "Timestamp": 8654, "Yaw": 0.0, "velocityX": 0.5, "velocityY": 0.0, "velocityZ": 0.0, "x": 8.879999999888241, "y": -0.19000000006053597, "z": -1.0},
  {"Altitude": 1.100000023841858, "DroneId": "Follower", "Latitude": 22.542893744374908, "LeftH": 0, "LeftV": 0, "Longitude": 113.95890180841101, "Pitch": 5.3, "RightH": 0, "RightV": 0, "Roll": 0.1, "Timestamp": 8814, "Yaw": 0.0, "velocityX": 0.0, "velocityY": 0.0, "velocityZ": 0.0, "x": 8.93999999994412, "y": -0.19000000006053597, "z": -1.0},
  {"Altitude": 1.100000023841858, "DroneId": "Follower", "Latitude": 22.54289376016389, "LeftH": 0, "LeftV": 0, "Longitude": 113.95890182378199, "Pitch": 2.8, "RightH": 0, "RightV": 0, "Roll": 0.1, "Timestamp": 8974, "Yaw": 0.0, "velocityX": 0.0, "velocityY": 0.0, "velocityZ": 0.0, "x": 8.93999999994412, "y": -0.19000000006053597, "z": -1.0},
  {"Altitude": 1.100000023841858, "DroneId": "Follower", "Latitude": 22.54289376658914, "LeftH": 0, "LeftV": 0, "Longitude": 113.95890185831168, "Pitch": -9.4, "RightH": 0, "RightV": 0, "Roll": 0.1, "Timestamp": 9134, "Yaw": 0.0, "velocityX": 0.0, "velocityY": 0.0, "velocityZ": 0.0, "x": 8.93999999994412, "y": -0.19000000006053597, "z": -1.0},
  {"Altitude": 1.100000023841858, "DroneId": "Follower", "Latitude": 22.542894238433917, "LeftH": 0, "LeftV": 0, "Longitude": 113.95890189481796, "Pitch": -3.9, "RightH": 0, "RightV": 0, "Roll": -0.4, "Timestamp": 9294, "Yaw": 0.0, "velocityX": 0.4000000059604645, "velocityY": 0.0, "velocityZ": 0.0, "x": 8.989999999757856, "y": -0.19000000006053597, "z": -1.0},
  {"Altitude": 1.100000023841858, "DroneId": "Follower", "Latitude": 22.542894661275444, "LeftH": 0, "LeftV": 0, "Longitude": 113.95890190686326, "Pitch": -1.5, "RightH": 0, "RightV": 0, "Roll": -0.2, "Timestamp": 9454, "Yaw": 0.0, "velocityX": 0.5, "velocityY": 0.0, "velocityZ": 0.0, "x": 9.039999999571592, "y": -0.19000000006053597, "z": -1.0},
  {"Altitude": 1.100000023841858, "DroneId": "Follower", "Latitude": 22.542895617070172, "LeftH": 0, "LeftV": 0, "Longitude": 113.95890191561227, "Pitch": 12.1, "RightH": 0, "RightV": 0, "Roll": 0.0, "Timestamp": 9615, "Yaw": 0.0, "velocityX": 0.5, "velocityY": 0.0, "velocityZ": 0.0, "x": 9.149999999906868, "y": -0.19000000006053597, "z": -1.0},
  {"Altitude": 1.100000023841858, "DroneId": "Follower", "Latitude": 22.54289599188508, "LeftH": 0, "LeftV": 0, "Longitude": 113.95890191698244, "Pitch": 15.5, "RightH": 0, "RightV": 0, "Roll": -1.8, "Timestamp": 9776, "Yaw": 0.0, "velocityX": 0.20000000298023224, "velocityY": 0.0, "velocityZ": 0.0, "x": 9.18999999994412, "y": -0.19000000006053597, "z": -1.0},
  {"Altitude": 1.100000023841858, "DroneId": "Follower", "Latitude": 22.542896084837057, "LeftH": 0, "LeftV": 0, "Longitude": 113.95890176014503, "Pitch": 8.3, "RightH": 0, "RightV": 0, "Roll": -13.3, "Timestamp": 9936, "Yaw": -0.3, "velocityX": -0.10000000149011612, "velocityY": -0.20000000298023224, "velocityZ": 0.0, "x": 9.199999999720603, "y": -0.2000000000698492, "z": -1.0},
  {"Altitude": 1.100000023841858, "DroneId": "Follower", "Latitude": 22.542895619014878, "LeftH": 0, "LeftV": 0, "Longitude": 113.95890081367385, "Pitch": 1.7, "RightH": 0, "RightV": 0, "Roll": -20.2, "Timestamp": 10097, "Yaw": 0.1, "velocityX": -0.30000001192092896, "velocityY": -0.800000011920929, "velocityZ": 0.0, "x": 9.139999999664724, "y": -0.30000000004656613, "z": -1.0},
  {"Altitude": 1.100000023841858, "DroneId": "Follower", "Latitude": 22.542895029742205, "LeftH": 0, "LeftV": 0, "Longitude": 113.9588985329641, "Pitch": -3.4, "RightH": 0, "RightV": 0, "Roll": -19.9, "Timestamp": 10258, "Yaw": 0.7, "velocityX": -0.20000000298023224, "velocityY": -1.5, "velocityZ": 0.0, "x": 9.069999999832362, "y": -0.5300000000279397, "z": -1.0},
  {"Altitude": 1.100000023841858, "DroneId": "Follower", "Latitude": 22.542894831930127, "LeftH": 0, "LeftV": 0, "Longitude": 113.95889687173849, "Pitch": -8.4, "RightH": 0, "RightV": 0, "Roll": -18.3, "Timestamp": 10418, "Yaw": 1.9, "velocityX": -0.10000000149011612, "velocityY": -1.7999999523162842, "velocityZ": 0.0, "x": 9.049999999813735, "y": -0.7000000000698492, "z": -1.0},
  {"Altitude": 1.100000023841858, "DroneId": "Follower", "Latitude": 22.542894881096153, "LeftH": 0, "LeftV": 0, "Longitude": 113.95889261775424, "Pitch": -10.5, "RightH": 0, "RightV": 0, "Roll": -16.7, "Timestamp": 10578, "Yaw": 1.6, "velocityX": 0.20000000298023224, "velocityY": -2.4000000953674316, "velocityZ": 0.0, "x": 9.039999999571592, "y": -1.1400000000139698, "z": -1.0},
  {"Altitude": 1.100000023841858, "DroneId": "Follower", "Latitude": 22.542895181806493, "LeftH": 0, "LeftV": 0, "Longitude": 113.95889006495776, "Pitch": -4.9, "RightH": 0, "RightV": 0, "Roll": -16.7, "Timestamp": 10739, "Yaw": 0.1, "velocityX": 0.4000000059604645, "velocityY": -2.700000047683716, "velocityZ": 0.0, "x": 9.069999999832362, "y": -1.4100000000325963, "z": -1.0},
  {"Altitude": 1.100000023841858, "DroneId": "Follower", "Latitude": 22.542896047981813, "LeftH": 0, "LeftV": 0, "Longitude": 113.9588841043194, "Pitch": 3.4, "RightH": 0, "RightV": 0, "Roll": -20.0, "Timestamp": 10898, "Yaw": -1.4, "velocityX": 0.4000000059604645, "velocityY": -3.299999952316284, "velocityZ": 0.0, "x": 9.15999999968335, "y": -2.0200000000186265, "z": -1.0},
  {"Altitude": 1.100000023841858, "DroneId": "Follower", "Latitude": 22.542896794201965, "LeftH": 0, "LeftV": 0, "Longitude": 113.95887688344676, "Pitch": 9.0, "RightH": 0, "RightV": 0, "Roll": -12.4, "Timestamp": 11058, "Yaw": -1.6, "velocityX": 0.30000001192092896, "velocityY": -3.9000000953674316, "velocityZ": 0.0, "x": 9.21999999973923, "y": -2.7700000000186265, "z": -1.0},
  {"Altitude": 1.100000023841858, "DroneId": "Follower", "Latitude": 22.542897004547566, "LeftH": 0, "LeftV": 0, "Longitude": 113.95887292566893, "Pitch": 7.5, "RightH": 0, "RightV": 0, "Roll": -4.3, "Timestamp": 11218, "Yaw": -0.6, "velocityX": 0.10000000149011612, "velocityY": -4.099999904632568, "velocityZ": 0.0, "x": 9.239999999757856, "y": -3.1700000000419095, "z": -1.0},
  {"Altitude": 1.100000023841858, "DroneId": "Follower", "Latitude": 22.54289715339923, "LeftH": 0, "LeftV": 0, "Longitude": 113.95886487981005, "Pitch": 0.3, "RightH": 0, "RightV": 0, "Roll": 11.6, "Timestamp": 11378, "Yaw": 0.3, "velocityX": 0.0, "velocityY": -4.0, "velocityZ": 0.0, "x": 9.239999999757856, "y": -4.0, "z": -1.0},
  {"Altitude": 1.100000023841858, "DroneId": "Follower", "Latitude": 22.542897193184388, "LeftH": 0, "LeftV": 0, "Longitude": 113.9588610347463, "Pitch": -1.3, "RightH": 0, "RightV": 0, "Roll": 10.5, "Timestamp": 11538, "Yaw": 0.0, "velocityX": 0.0, "velocityY": -3.799999952316284, "velocityZ": 0.0, "x": 9.239999999757856, "y": -4.400000000023283, "z": -1.0},
  {"Altitude": 1.100000023841858, "DroneId": "Follower", "Latitude": 22.542897423945156, "LeftH": 0, "LeftV": 0, "Longitude": 113.95885381100746, "Pitch": -6.8, "RightH": 0, "RightV": 0, "Roll": 5.5, "Timestamp": 11698, "Yaw": 0.0, "velocityX": 0.20000000298023224, "velocityY": -3.5999999046325684, "velocityZ": 0.0, "x": 9.25, "y": -5.14000000001397, "z": -1.0},
  {"Altitude": 1.100000023841858, "DroneId": "Follower", "Latitude": 22.542897694336883, "LeftH": 0, "LeftV": 0, "Longitude": 113.95885028404349, "Pitch": -5.8, "RightH": 0, "RightV": 0, "Roll": 4.5, "Timestamp": 11858, "Yaw": 0.0, "velocityX": 0.30000001192092896, "velocityY": -3.5, "velocityZ": 0.0, "x": 9.269999999552965, "y": -5.5, "z": -1.0},
  {"Altitude": 1.100000023841858, "DroneId": "Follower", "Latitude": 22.542898522380472, "LeftH": 0, "LeftV": 0, "Longitude": 113.95884332512689, "Pitch": 4.2, "RightH": 0, "RightV": 0, "Roll": -19.6, "Timestamp": 12019, "Yaw": -1.9, "velocityX": 0.5, "velocityY": -3.700000047683716, "velocityZ": 0.0, "x": 9.349999999627471, "y": -6.220000000088476, "z": -1.0},
  {"Altitude": 1.100000023841858, "DroneId": "Follower", "Latitude": 22.54289928982966, "LeftH": 0, "LeftV": 0, "Longitude": 113.95883546084286, "Pitch": 3.7, "RightH": 0, "RightV": 0, "Roll": -9.5, "Timestamp": 12179, "Yaw": -0.3, "velocityX": 0.30000001192092896, "velocityY": -4.199999809265137, "velocityZ": 0.0, "x": 9.419999999925494, "y": -7.03000000002794, "z": -1.0},
  {"Altitude": 1.100000023841858, "DroneId": "Follower", "Latitude": 22.54289958011396, "LeftH": 0, "LeftV": 0, "Longitude": 113.95883127362738, "Pitch": 5.9, "RightH": 0, "RightV": 0, "Roll": -3.1, "Timestamp": 12339, "Yaw": -0.1, "velocityX": 0.30000001192092896, "velocityY": -4.300000190734863, "velocityZ": 0.0, "x": 9.43999999994412, "y": -7.470000000088476, "z": -1.0},
  {"Altitude": 1.100000023841858, "DroneId": "Follower", "Latitude": 22.54289989557668, "LeftH": 0, "LeftV": 0, "Longitude": 113.95882285882843, "Pitch": 2.3, "RightH": 0, "RightV": 0, "Roll": 8.8, "Timestamp": 12500, "Yaw": 0.0, "velocityX": 0.0, "velocityY": -4.199999809265137, "velocityZ": 0.0, "x": 9.459999999962747, "y": -8.330000000074506, "z": -1.0},
  {"Altitude": 1.100000023841858, "DroneId": "Follower", "Latitude": 22.542899983773967, "LeftH": 0, "LeftV": 0, "Longitude": 113.95881504863121, "Pitch": 0.1, "RightH": 0, "RightV": 0, "Roll": 15.0, "Timestamp": 12660, "Yaw": 0.3, "velocityX": 0.0, "velocityY": -3.700000047683716, "velocityZ": 0.0, "x": 9.449999999720603, "y": -9.14000000001397, "z": -1.0},
  {"Altitude": 1.100000023841858, "DroneId": "Follower", "Latitude": 22.542900067387908, "LeftH": 0, "LeftV": 0, "Longitude": 113.95881156252219, "Pitch": -8.1, "RightH": 0, "RightV": 0, "Roll": 13.4, "Timestamp": 12820, "Yaw": -1.6, "velocityX": 0.10000000149011612, "velocityY": -3.4000000953674316, "velocityZ": 0.0, "x": 9.449999999720603, "y": -9.5, "z": -1.0},
  {"Altitude": 1.100000023841858, "DroneId": "Follower", "Latitude": 22.54290058916974, "LeftH": 0, "LeftV": 0, "Longitude": 113.95880535631301, "Pitch": -5.0, "RightH": 0, "RightV": 0, "Roll": 13.3, "Timestamp": 12981, "Yaw": -0.4, "velocityX": 0.4000000059604645, "velocityY": -2.9000000953674316, "velocityZ": 0.0, "x": 9.5, "y": -10.14000000001397, "z": -1.0},
  {"Altitude": 1.100000023841858, "DroneId": "Follower", "Latitude": 22.54290102014992, "LeftH": 0, "LeftV": 0, "Longitude": 113.95880261946084, "Pitch": -2.9, "RightH": 0, "RightV": 0, "Roll": 1.6, "Timestamp": 13140, "Yaw": -0.1, "velocityX": 0.5, "velocityY": -2.700000047683716, "velocityZ": 0.0, "x": 9.539999999571592, "y": -10.42000000004191, "z": -1.0},
  {"Altitude": 1.100000023841858, "DroneId": "Follower", "Latitude": 22.542902023671417, "LeftH": 0, "LeftV": 0, "Longitude": 113.9587971480754, "Pitch": 8.6, "RightH": 0, "RightV": 0, "Roll": -17.3, "Timestamp": 13301, "Yaw": -2.1, "velocityX": 0.5, "velocityY": -3.0, "velocityZ": 0.0, "x": 9.639999999664724, "y": -10.979999999981374, "z": -1.0},
  {"Altitude": 1.100000023841858, "DroneId": "Follower", "Latitude": 22.542902434587674, "LeftH": 0, "LeftV": 0, "Longitude": 113.9587940624834, "Pitch": 9.8, "RightH": 0, "RightV": 0, "Roll": -15.6, "Timestamp": 13462, "Yaw": -1.7, "velocityX": 0.30000001192092896, "velocityY": -3.299999952316284, "velocityZ": 0.0, "x": 9.679999999701977, "y": -11.300000000046566, "z": -1.0},
  {"Altitude": 1.100000023841858, "DroneId": "Follower", "Latitude": 22.542902840269495, "LeftH": 0, "LeftV": 0, "Longitude": 113.95878713368514, "Pitch": 7.1, "RightH": 0, "RightV": 0, "Roll": -3.6, "Timestamp": 13622, "Yaw": -0.1, "velocityX": 0.10000000149011612, "velocityY": -3.700000047683716, "velocityZ": 0.0, "x": 9.709999999962747, "y": -12.020000000018626, "z": -1.0},
  {"Altitude": 1.100000023841858, "DroneId": "Follower", "Latitude": 22.542902847697086, "LeftH": 0, "LeftV": 0, "Longitude": 113.95877983547139, "Pitch": -3.2, "RightH": 0, "RightV": 0, "Roll": 10.6, "Timestamp": 13782, "Yaw": -0.2, "velocityX": 0.0, "velocityY": -3.5999999046325684, "velocityZ": 0.0, "x": 9.699999999720603, "y": -12.770000000018626, "z": -1.0},
  {"Altitude": 1.100000023841858, "DroneId": "Follower", "Latitude": 22.54290283965267, "LeftH": 0, "LeftV": 0, "Longitude": 113.95877640046243, "Pitch": -5.4, "RightH": 0, "RightV": 0, "Roll": 12.8, "Timestamp": 13943, "Yaw": -0.4, "velocityX": 0.0, "velocityY": -3.4000000953674316, "velocityZ": 0.0, "x": 9.68999999994412, "y": -13.119999999995343, "z": -1.0},
  {"Altitude": 1.100000023841858, "DroneId": "Follower", "Latitude": 22.54290313176174, "LeftH": 0, "LeftV": 0, "Longitude": 113.95877026509203, "Pitch": -7.9, "RightH": 0, "RightV": 0, "Roll": 16.8, "Timestamp": 14103, "Yaw": -1.0, "velocityX": 0.30000001192092896, "velocityY": -2.799999952316284, "velocityZ": 0.0, "x": 9.709999999962747, "y": -13.75, "z": -1.0},
  {"Altitude": 1.100000023841858, "DroneId": "Follower", "Latitude": 22.542903473482323, "LeftH": 0, "LeftV": 0, "Longitude": 113.95876763485514, "Pitch": -7.8, "RightH": 0, "RightV": 0, "Roll": 16.8, "Timestamp": 14263, "Yaw": -1.0, "velocityX": 0.4000000059604645, "velocityY": -2.5, "velocityZ": 0.0, "x": 9.739999999757856, "y": -14.020000000018626, "z": -1.0},
  {"Altitude": 1.100000023841858, "DroneId": "Follower", "Latitude": 22.5429045744192, "LeftH": 0, "LeftV": 0, "Longitude": 113.95876328957186, "Pitch": -1.1, "RightH": 0, "RightV": 0, "Roll": 10.9, "Timestamp": 14424, "Yaw": 0.2, "velocityX": 0.699999988079071, "velocityY": -1.899999976158142, "velocityZ": 0.0, "x": 9.859999999869615, "y": -14.470000000088476, "z": -1.0},
  {"Altitude": 1.100000023841858, "DroneId": "Follower", "Latitude": 22.54290589265809, "LeftH": 0, "LeftV": 0, "Longitude": 113.95875975013676, "Pitch": -0.5, "RightH": 0, "RightV": 0, "Roll": -9.7, "Timestamp": 14585, "Yaw": 0.3, "velocityX": 0.6000000238418579, "velocityY": -1.7999999523162842, "velocityZ": 0.0, "x": 9.989999999757856, "y": -14.840000000083819, "z": -1.0},
  {"Altitude": 1.100000023841858, "DroneId": "Follower", "Latitude": 22.54290652854382, "LeftH": 0, "LeftV": 0, "Longitude": 113.95875787825608, "Pitch": 6.1, "RightH": 0, "RightV": 0, "Roll": -8.5, "Timestamp": 14746, "Yaw": -0.6, "velocityX": 0.699999988079071, "velocityY": -1.899999976158142, "velocityZ": 0.0, "x": 10.059999999590218, "y": -15.03000000002794, "z": -1.0},
  {"Altitude": 1.100000023841858, "DroneId": "Follower", "Latitude": 22.542907523138506, "LeftH": 0, "LeftV": 0, "Longitude": 113.95875373363452, "Pitch": 8.1, "RightH": 0, "RightV": 0, "Roll": -7.0, "Timestamp": 14906, "Yaw": -0.5, "velocityX": 0.30000001192092896, "velocityY": -2.200000047683716, "velocityZ": 0.0, "x": 10.15999999968335, "y": -15.460000000079162, "z": -1.0},
  {"Altitude": 1.100000023841858, "DroneId": "Follower", "Latitude": 22.54290798933763, "LeftH": 0, "LeftV": 0, "Longitude": 113.9587491727272, "Pitch": 9.6, "RightH": 0, "RightV": 0, "Roll": 4.4, "Timestamp": 15067, "Yaw": 0.0, "velocityX": 0.10000000149011612, "velocityY": -2.299999952316284, "velocityZ": 0.0, "x": 10.199999999720603, "y": -15.930000000051223, "z": -1.0},
  {"Altitude": 1.100000023841858, "DroneId": "Follower", "Latitude": 22.542908076069956, "LeftH": 0, "LeftV": 0, "Longitude": 113.95874691395555, "Pitch": 4.8, "RightH": 0, "RightV": 0, "Roll": 9.3, "Timestamp": 15226, "Yaw": 0.0, "velocityX": 0.0, "velocityY": -2.200000047683716, "velocityZ": 0.0, "x": 10.209999999962747, "y": -16.17000000004191, "z": -1.0},
  {"Altitude": 1.100000023841858, "DroneId": "Follower", "Latitude": 22.542908110397935, "LeftH": 0, "LeftV": 0, "Longitude": 113.95874296151798, "Pitch": -2.6, "RightH": 0, "RightV": 0, "Roll": 20.1, "Timestamp": 15387, "Yaw": -0.5, "velocityX": 0.0, "velocityY": -1.7000000476837158, "velocityZ": 0.0, "x": 10.209999999962747, "y": -16.570000000065193, "z": -1.0},
  {"Altitude": 1.100000023841858, "DroneId": "Follower", "Latitude": 22.5429083393939, "LeftH": 0, "LeftV": 0, "Longitude": 113.95874033201372, "Pitch": -1.5, "RightH": 0, "RightV": 0, "Roll": 19.8, "Timestamp": 15547, "Yaw": 0.0, "velocityX": 0.10000000149011612, "velocityY": -0.8999999761581421, "velocityZ": 0.0, "x": 10.229999999981374, "y": -16.84000000008382, "z": -1.0},
  {"Altitude": 1.100000023841858, "DroneId": "Follower", "Latitude": 22.542908519266682, "LeftH": 0, "LeftV": 0, "Longitude": 113.95873954051515, "Pitch": -0.5, "RightH": 0, "RightV": 0, "Roll": 19.9, "Timestamp": 15708, "Yaw": 0.2, "velocityX": 0.20000000298023224, "velocityY": -0.6000000238418579, "velocityZ": 0.0, "x": 10.239999999757856, "y": -16.930000000051223, "z": -1.0},
  {"Altitude": 1.100000023841858, "DroneId": "Follower", "Latitude": 22.542908942108202, "LeftH": 0, "LeftV": 0, "Longitude": 113.95873899914606, "Pitch": 2.3, "RightH": 0, "RightV": 0, "Roll": 19.8, "Timestamp": 15869, "Yaw": 0.7, "velocityX": 0.20000000298023224, "velocityY": 0.0, "velocityZ": 0.0, "x": 10.289999999571592, "y": -16.979999999981374, "z": -1.0},
  {"Altitude": 1.100000023841858, "DroneId": "Follower", "Latitude": 22.5429091335807, "LeftH": 0, "LeftV": 0, "Longitude": 113.95873924721636, "Pitch": 5.2, "RightH": 0, "RightV": 0, "Roll": 18.9, "Timestamp": 16029, "Yaw": 1.3, "velocityX": 0.10000000149011612, "velocityY": 0.4000000059604645, "velocityZ": 0.0, "x": 10.309999999590218, "y": -16.960000000079162, "z": -1.0},
  {"Altitude": 1.100000023841858, "DroneId": "Follower", "Latitude": 22.54290932670663, "LeftH": 0, "LeftV": 0, "Longitude": 113.95874065373334, "Pitch": 5.5, "RightH": 0, "RightV": 0, "Roll": -2.6, "Timestamp": 16189, "Yaw": 0.0, "velocityX": 0.0, "velocityY": 0.8999999761581421, "velocityZ": 0.0, "x": 10.339999999850988, "y": -16.81000000005588, "z": -1.0},
  {"Altitude": 1.100000023841858, "DroneId": "Follower", "Latitude": 22.542909310951917, "LeftH": 0, "LeftV": 0, "Longitude": 113.95874150359485, "Pitch": 3.5, "RightH": 0, "RightV": 0, "Roll": -8.8, "Timestamp": 16349, "Yaw": -0.3, "velocityX": 0.0, "velocityY": 0.800000011920929, "velocityZ": 0.0, "x": 10.339999999850988, "y": -16.729999999981374, "z": -1.0},
  {"Altitude": 1.100000023841858, "DroneId": "Follower", "Latitude": 22.54290918909487, "LeftH": 0, "LeftV": 0, "Longitude": 113.9587427446698, "Pitch": -3.5, "RightH": 0, "RightV": 0, "Roll": -13.8, "Timestamp": 16509, "Yaw": 0.3, "velocityX": 0.0, "velocityY": 0.4000000059604645, "velocityZ": 0.0, "x": 10.319999999832362, "y": -16.600000000093132, "z": -1.0},
  {"Altitude": 1.100000023841858, "DroneId": "Follower", "Latitude": 22.54290918174439, "LeftH": 0, "LeftV": 0, "Longitude": 113.95874303924865, "Pitch": -8.6, "RightH": 0, "RightV": 0, "Roll": -17.2, "Timestamp": 16669, "Yaw": 1.4, "velocityX": 0.0, "velocityY": 0.10000000149011612, "velocityZ": 0.0, "x": 10.319999999832362, "y": -16.570000000065193, "z": -1.0},
  {"Altitude": 1.100000023841858, "DroneId": "Follower", "Latitude": 22.542909626183327, "LeftH": 0, "LeftV": 0, "Longitude": 113.95874276652344, "Pitch": -12.3, "RightH": 0, "RightV": 0, "Roll": -13.1, "Timestamp": 16830, "Yaw": 1.9, "velocityX": 0.4000000059604645, "velocityY": -0.4000000059604645, "velocityZ": 0.0, "x": 10.369999999646097, "y": -16.600000000093132, "z": -1.0},
  {"Altitude": 1.100000023841858, "DroneId": "Follower", "Latitude": 22.54291098383899, "LeftH": 0, "LeftV": 0, "Longitude": 113.95874162295502, "Pitch": -20.1, "RightH": 0, "RightV": 0, "Roll": 3.5, "Timestamp": 16990, "Yaw": 0.6, "velocityX": 1.100000023841858, "velocityY": -0.6000000238418579, "velocityZ": 0.0, "x": 10.519999999552965, "y": -16.720000000088476, "z": -1.0},
  {"Altitude": 1.100000023841858, "DroneId": "Follower", "Latitude": 22.542913627615853, "LeftH": 0, "LeftV": 0, "Longitude": 113.95874063152725, "Pitch": -13.9, "RightH": 0, "RightV": 0, "Roll": 13.6, "Timestamp": 17149, "Yaw": -0.9, "velocityX": 1.7000000476837158, "velocityY": -0.30000001192092896, "velocityZ": 0.0, "x": 10.809999999590218, "y": -16.830000000074506, "z": -1.0},
  {"Altitude": 1.100000023841858, "DroneId": "Follower", "Latitude": 22.542915345925174, "LeftH": 0, "LeftV": 0, "Longitude": 113.95874040811998, "Pitch": -10.4, "RightH": 0, "RightV": 0, "Roll": 16.8, "Timestamp": 17310, "Yaw": -1.0, "velocityX": 2.0, "velocityY": 0.0, "velocityZ": 0.0, "x": 11.0, "y": -16.850000000093132, "z": -1.0},
  {"Altitude": 1.100000023841858, "DroneId": "Follower", "Latitude": 22.542919304368482, "LeftH": 0, "LeftV": 0, "Longitude": 113.95874076232326, "Pitch": -1.1, "RightH": 0, "RightV": 0, "Roll": 3.6, "Timestamp": 17470, "Yaw": -0.2, "velocityX": 2.299999952316284, "velocityY": 0.30000001192092896, "velocityZ": 0.0, "x": 11.43999999994412, "y": -16.820000000065193, "z": -1.0},
  {"Altitude": 1.100000023841858, "DroneId": "Follower", "Latitude": 22.542921396027758, "LeftH": 0, "LeftV": 0, "Longitude": 113.95874115286888, "Pitch": 1.8, "RightH": 0, "RightV": 0, "Roll": -3.8, "Timestamp": 17630, "Yaw": -0.2, "velocityX": 2.299999952316284, "velocityY": 0.4000000059604645, "velocityZ": 0.0, "x": 11.669999999925494, "y": -16.790000000037253, "z": -1.0},
  {"Altitude": 1.100000023841858, "DroneId": "Follower", "Latitude": 22.54292550780327, "LeftH": 0, "LeftV": 0, "Longitude": 113.95874175377787, "Pitch": 0.3, "RightH": 0, "RightV": 0, "Roll": -14.1, "Timestamp": 17790, "Yaw": -0.1, "velocityX": 2.200000047683716, "velocityY": 0.10000000149011612, "velocityZ": 0.0, "x": 12.129999999888241, "y": -16.739999999990687, "z": -1.0},
  {"Altitude": 1.100000023841858, "DroneId": "Follower", "Latitude": 22.542927523147693, "LeftH": 0, "LeftV": 0, "Longitude": 113.95874179520332, "Pitch": -3.8, "RightH": 0, "RightV": 0, "Roll": -18.6, "Timestamp": 17951, "Yaw": 0.8, "velocityX": 2.200000047683716, "velocityY": -0.10000000149011612, "velocityZ": 0.0, "x": 12.349999999627471, "y": -16.739999999990687, "z": -1.0},
  {"Altitude": 1.100000023841858, "DroneId": "Follower", "Latitude": 22.54293172793515, "LeftH": 0, "LeftV": 0, "Longitude": 113.95874101345234, "Pitch": -9.4, "RightH": 0, "RightV": 0, "Roll": -4.5, "Timestamp": 18111, "Yaw": 1.4, "velocityX": 2.4000000953674316, "velocityY": -0.6000000238418579, "velocityZ": 0.0, "x": 12.819999999832362, "y": -16.830000000074506, "z": -1.0},
  {"Altitude": 1.100000023841858, "DroneId": "Follower", "Latitude": 22.542936420596245, "LeftH": 0, "LeftV": 0, "Longitude": 113.95873973495881, "Pitch": -6.3, "RightH": 0, "RightV": 0, "Roll": 3.4, "Timestamp": 18271, "Yaw": 0.3, "velocityX": 2.700000047683716, "velocityY": -0.6000000238418579, "velocityZ": 0.0, "x": 13.339999999850988, "y": -16.970000000088476, "z": -1.0},
  {"Altitude": 1.100000023841858, "DroneId": "Follower", "Latitude": 22.542938959213153, "LeftH": 0, "LeftV": 0, "Longitude": 113.95873916689406, "Pitch": -4.1, "RightH": 0, "RightV": 0, "Roll": 12.1, "Timestamp": 18432, "Yaw": 0.0, "velocityX": 2.799999952316284, "velocityY": -0.5, "velocityZ": 0.0, "x": 13.619999999646097, "y": -17.03000000002794, "z": -1.0},
  {"Altitude": 1.100000023841858, "DroneId": "Follower", "Latitude": 22.54294420741007, "LeftH": 0, "LeftV": 0, "Longitude": 113.95873861241701, "Pitch": 6.0, "RightH": 0, "RightV": 0, "Roll": 12.7, "Timestamp": 18592, "Yaw": 1.0, "velocityX": 2.9000000953674316, "velocityY": 0.0, "velocityZ": 0.0, "x": 14.199999999720603, "y": -17.100000000093132, "z": -1.0},
  {"Altitude": 1.100000023841858, "DroneId": "Follower", "Latitude": 22.54294678004655, "LeftH": 0, "LeftV": 0, "Longitude": 113.9587386927078, "Pitch": 3.0, "RightH": 0, "RightV": 0, "Roll": 6.0, "Timestamp": 18752, "Yaw": 0.0, "velocityX": 2.799999952316284, "velocityY": 0.10000000149011612, "velocityZ": 0.0, "x": 14.479999999981374, "y": -17.100000000093132, "z": -1.0},
  {"Altitude": 1.100000023841858, "DroneId": "Follower", "Latitude": 22.54295178814466, "LeftH": 0, "LeftV": 0, "Longitude": 113.95873915054776, "Pitch": 1.9, "RightH": 0, "RightV": 0, "Roll": -5.1, "Timestamp": 18912, "Yaw": -0.4, "velocityX": 2.700000047683716, "velocityY": 0.20000000298023224, "velocityZ": 0.0, "x": 15.039999999571592, "y": -17.06000000005588, "z": -1.0},
  {"Altitude": 1.100000023841858, "DroneId": "Follower", "Latitude": 22.54295668519729, "LeftH": 0, "LeftV": 0, "Longitude": 113.95873932279822, "Pitch": -10.1, "RightH": 0, "RightV": 0, "Roll": -13.9, "Timestamp": 19072, "Yaw": 2.0, "velocityX": 2.700000047683716, "velocityY": -0.10000000149011612, "velocityZ": 0.0, "x": 15.579999999608845, "y": -17.050000000046566, "z": -1.0},
  {"Altitude": 1.100000023841858, "DroneId": "Follower", "Latitude": 22.542959216215277, "LeftH": 0, "LeftV": 0, "Longitude": 113.95873906501492, "Pitch": -8.5, "RightH": 0, "RightV": 0, "Roll": -14.5, "Timestamp": 19233, "Yaw": 1.4, "velocityX": 2.9000000953674316, "velocityY": -0.30000001192092896, "velocityZ": 0.0, "x": 15.859999999869615, "y": -17.09000000008382, "z": -1.0},
  {"Altitude": 1.100000023841858, "DroneId": "Follower", "Latitude": 22.542964605956197, "LeftH": 0, "LeftV": 0, "Longitude": 113.95873785647876, "Pitch": -4.8, "RightH": 0, "RightV": 0, "Roll": -2.9, "Timestamp": 19394, "Yaw": 0.4, "velocityX": 3.0, "velocityY": -0.800000011920929, "velocityZ": 0.0, "x": 16.449999999720603, "y": -17.220000000088476, "z": -1.0},
  {"Altitude": 1.100000023841858, "DroneId": "Follower", "Latitude": 22.542967357591618, "LeftH": 0, "LeftV": 0, "Longitude": 113.95873705441346, "Pitch": -1.6, "RightH": 0, "RightV": 0, "Roll": 2.4, "Timestamp": 19555, "Yaw": 0.2, "velocityX": 3.0999999046325684, "velocityY": -0.800000011920929, "velocityZ": 0.0, "x": 16.759999999776483, "y": -17.31000000005588, "z": -1.0},
  {"Altitude": 1.100000023841858, "DroneId": "Follower", "Latitude": 22.54297288133759, "LeftH": 0, "LeftV": 0, "Longitude": 113.95873558736234, "Pitch": -0.3, "RightH": 0, "RightV": 0, "Roll": 13.2, "Timestamp": 19715, "Yaw": -0.1, "velocityX": 3.0, "velocityY": -0.6000000238418579, "velocityZ": 0.0, "x": 17.369999999646097, "y": -17.470000000088476, "z": -1.0},
  {"Altitude": 1.100000023841858, "DroneId": "Follower", "Latitude": 22.54297836099777, "LeftH": 0, "LeftV": 0, "Longitude": 113.95873484609007, "Pitch": -14.9, "RightH": 0, "RightV": 0, "Roll": 8.1, "Timestamp": 19876, "Yaw": -2.9, "velocityX": 3.0999999046325684, "velocityY": -0.10000000149011612, "velocityZ": 0.0, "x": 17.96999999973923, "y": -17.56000000005588, "z": -1.0},
  {"Altitude": 1.100000023841858, "DroneId": "Follower", "Latitude": 22.542981320434397, "LeftH": 0, "LeftV": 0, "Longitude": 113.95873477388768, "Pitch": -4.1, "RightH": 0, "RightV": 0, "Roll": 2.7, "Timestamp": 20036, "Yaw": -1.3, "velocityX": 3.4000000953674316, "velocityY": 0.0, "velocityZ": 0.0, "x": 18.299999999813735, "y": -17.580000000074506, "z": -1.0},
  {"Altitude": 1.100000023841858, "DroneId": "Follower", "Latitude": 22.542987332893574, "LeftH": 0, "LeftV": 0, "Longitude": 113.95873481235266, "Pitch": 11.7, "RightH": 0, "RightV": 0, "Roll": 0.2, "Timestamp": 20195, "Yaw": 0.3, "velocityX": 3.0999999046325684, "velocityY": 0.0, "velocityZ": 0.0, "x": 18.96999999973923, "y": -17.59000000008382, "z": -1.0},
  {"Altitude": 1.100000023841858, "DroneId": "Follower", "Latitude": 22.542992618613958, "LeftH": 0, "LeftV": 0, "Longitude": 113.9587348961575, "Pitch": 19.5, "RightH": 0, "RightV": 0, "Roll": -5.7, "Timestamp": 20355, "Yaw": -0.8, "velocityX": 2.5999999046325684, "velocityY": 0.0, "velocityZ": 0.0, "x": 19.549999999813735, "y": -17.59000000008382, "z": -1.0},
  {"Altitude": 1.100000023841858, "DroneId": "Follower", "Latitude": 22.542994826964367, "LeftH": 0, "LeftV": 0, "Longitude": 113.9587348077782, "Pitch": 20.4, "RightH": 0, "RightV": 0, "Roll": -3.0, "Timestamp": 20516, "Yaw": -0.8, "velocityX": 2.200000047683716, "velocityY": -0.10000000149011612, "velocityZ": 0.0, "x": 19.799999999813735, "y": -17.600000000093132, "z": -1.0},
  {"Altitude": 1.100000023841858, "DroneId": "Follower", "Latitude": 22.542998281488046, "LeftH": 0, "LeftV": 0, "Longitude": 113.95873446815618, "Pitch": 20.4, "RightH": 0, "RightV": 0, "Roll": -0.8, "Timestamp": 20676, "Yaw": -0.3, "velocityX": 1.5, "velocityY": -0.20000000298023224, "velocityZ": 0.0, "x": 20.179999999701977, "y": -17.650000000023283, "z": -1.0},
  {"Altitude": 1.100000023841858, "DroneId": "Follower", "Latitude": 22.542999529511782, "LeftH": 0, "LeftV": 0, "Longitude": 113.95873426195644, "Pitch": 20.3, "RightH": 0, "RightV": 0, "Roll": 0.0, "Timestamp": 20837, "Yaw": -0.1, "velocityX": 1.2000000476837158, "velocityY": -0.20000000298023224, "velocityZ": 0.0, "x": 20.319999999832362, "y": -17.67000000004191, "z": -1.0},
  {"Altitude": 1.100000023841858, "DroneId": "Follower", "Latitude": 22.543001087969408, "LeftH": 0, "LeftV": 0, "Longitude": 113.95873385248808, "Pitch": 19.9, "RightH": 0, "RightV": 0, "Roll": 3.1, "Timestamp": 20997, "Yaw": 0.3, "velocityX": 0.5, "velocityY": -0.10000000149011612, "velocityZ": 0.0, "x": 20.489999999757856, "y": -17.720000000088476, "z": -1.0},
  {"Altitude": 1.100000023841858, "DroneId": "Follower", "Latitude": 22.54300140820395, "LeftH": 0, "LeftV": 0, "Longitude": 113.95873369871482, "Pitch": 19.8, "RightH": 0, "RightV": 0, "Roll": 3.3, "Timestamp": 21158, "Yaw": 0.5, "velocityX": 0.10000000149011612, "velocityY": -0.10000000149011612, "velocityZ": 0.0, "x": 20.519999999552965, "y": -17.729999999981374, "z": -1.0},
  {"Altitude": 1.100000023841858, "DroneId": "Follower", "Latitude": 22.543001148383908, "LeftH": 0, "LeftV": 0, "Longitude": 113.95873356169355, "Pitch": 12.9, "RightH": 0, "RightV": 0, "Roll": 4.3, "Timestamp": 21318, "Yaw": 0.3, "velocityX": -0.4000000059604645, "velocityY": 0.0, "velocityZ": 0.0, "x": 20.489999999757856, "y": -17.75, "z": -1.0},
  {"Altitude": 1.100000023841858, "DroneId": "Follower", "Latitude": 22.543000029362087, "LeftH": 0, "LeftV": 0, "Longitude": 113.95873369125712, "Pitch": -4.2, "RightH": 0, "RightV": 0, "Roll": 6.4, "Timestamp": 21478, "Yaw": -0.2, "velocityX": -0.6000000238418579, "velocityY": 0.10000000149011612, "velocityZ": 0.0, "x": 20.369999999646097, "y": -17.729999999981374, "z": -1.0},
  {"Altitude": 1.100000023841858, "DroneId": "Follower", "Latitude": 22.542999443944563, "LeftH": 0, "LeftV": 0, "Longitude": 113.95873388094604, "Pitch": -9.0, "RightH": 0, "RightV": 0, "Roll": 4.4, "Timestamp": 21639, "Yaw": -0.5, "velocityX": -0.5, "velocityY": 0.20000000298023224, "velocityZ": 0.0, "x": 20.309999999590218, "y": -17.710000000079162, "z": -1.0},
  {"Altitude": 1.100000023841858, "DroneId": "Follower", "Latitude": 22.542998812333764, "LeftH": 0, "LeftV": 0, "Longitude": 113.9587344369897, "Pitch": -19.7, "RightH": 0, "RightV": 0, "Roll": -2.5, "Timestamp": 21800, "Yaw": 0.0, "velocityX": 0.0, "velocityY": 0.20000000298023224, "velocityZ": 0.0, "x": 20.239999999757856, "y": -17.650000000023283, "z": -1.0},
  {"Altitude": 1.100000023841858, "DroneId": "Follower", "Latitude": 22.54299932936948, "LeftH": 0, "LeftV": 0, "Longitude": 113.95873487755036, "Pitch": -6.5, "RightH": 0, "RightV": 0, "Roll": -3.8, "Timestamp": 21960, "Yaw": 0.0, "velocityX": 0.5, "velocityY": 0.10000000149011612, "velocityZ": 0.0, "x": 20.299999999813735, "y": -17.60999999998603, "z": -1.0},
  {"Altitude": 1.100000023841858, "DroneId": "Follower", "Latitude": 22.542999851219847, "LeftH": 0, "LeftV": 0, "Longitude": 113.95873500297692, "Pitch": 4.6, "RightH": 0, "RightV": 0, "Roll": -3.1, "Timestamp": 22120, "Yaw": -0.1, "velocityX": 0.6000000238418579, "velocityY": 0.0, "velocityZ": 0.0, "x": 20.34999999962747, "y": -17.59000000008382, "z": -1.0},
  {"Altitude": 1.100000023841858, "DroneId": "Follower", "Latitude": 22.543000723049385, "LeftH": 0, "LeftV": 0, "Longitude": 113.95873508044794, "Pitch": 18.7, "RightH": 0, "RightV": 0, "Roll": -2.4, "Timestamp": 22280, "Yaw": -0.4, "velocityX": 0.20000000298023224, "velocityY": 0.0, "velocityZ": 0.0, "x": 20.449999999720603, "y": -17.59000000008382, "z": -1.0},
  {"Altitude": 1.100000023841858, "DroneId": "Follower", "Latitude": 22.543000827652484, "LeftH": 0, "LeftV": 0, "Longitude": 113.95873504549694, "Pitch": 20.2, "RightH": 0, "RightV": 0, "Roll": 0.0, "Timestamp": 22441, "Yaw": -0.2, "velocityX": 0.0, "velocityY": 0.0, "velocityZ": 0.0, "x": 20.459999999962747, "y": -17.59000000008382, "z": -1.0},
  {"Altitude": 1.100000023841858, "DroneId": "Follower", "Latitude": 22.543000168404532, "LeftH": 0, "LeftV": 0, "Longitude": 113.95873498047398, "Pitch": 0.5, "RightH": 0, "RightV": 0, "Roll": 1.5, "Timestamp": 22602, "Yaw": -0.1, "velocityX": -0.5, "velocityY": 0.0, "velocityZ": 0.0, "x": 20.389999999664724, "y": -17.600000000093132, "z": -1.0},
  {"Altitude": 1.100000023841858, "DroneId": "Follower", "Latitude": 22.54299964424108, "LeftH": 0, "LeftV": 0, "Longitude": 113.95873499078861, "Pitch": -1.9, "RightH": 0, "RightV": 0, "Roll": 0.7, "Timestamp": 22761, "Yaw": 0.0, "velocityX": -0.5, "velocityY": 0.0, "velocityZ": 0.0, "x": 20.329999999608845, "y": -17.59000000008382, "z": -1.0},
  {"Altitude": 1.100000023841858, "DroneId": "Follower", "Latitude": 22.54299871600639, "LeftH": 0, "LeftV": 0, "Longitude": 113.95873504419832, "Pitch": -9.8, "RightH": 0, "RightV": 0, "Roll": 0.5, "Timestamp": 22921, "Yaw": 0.0, "velocityX": -0.4000000059604645, "velocityY": 0.0, "velocityZ": 0.0, "x": 20.229999999981374, "y": -17.59000000008382, "z": -1.0},
  {"Altitude": 1.100000023841858, "DroneId": "Follower", "Latitude": 22.542998351343382, "LeftH": 0, "LeftV": 0, "Longitude": 113.9587351339875, "Pitch": -12.3, "RightH": 0, "RightV": 0, "Roll": 0.3, "Timestamp": 23081, "Yaw": 0.0, "velocityX": 0.0, "velocityY": 0.0, "velocityZ": 0.0, "x": 20.18999999994412, "y": -17.580000000074506, "z": -1.0},
  {"Altitude": 1.100000023841858, "DroneId": "Follower", "Latitude": 22.54299853515698, "LeftH": 0, "LeftV": 0, "Longitude": 113.95873519528163, "Pitch": -7.3, "RightH": 0, "RightV": 0, "Roll": 0.0, "Timestamp": 23241, "Yaw": 0.0, "velocityX": 0.20000000298023224, "velocityY": 0.0, "velocityZ": 0.0, "x": 20.209999999962747, "y": -17.570000000065193, "z": -1.0},
  {"Altitude": 1.100000023841858, "DroneId": "Follower", "Latitude": 22.542999270736917, "LeftH": 0, "LeftV": 0, "Longitude": 113.95873531807389, "Pitch": 10.8, "RightH": 0, "RightV": 0, "Roll": -0.2, "Timestamp": 23401, "Yaw": 0.0, "velocityX": 0.4000000059604645, "velocityY": 0.0, "velocityZ": 0.0, "x": 20.28999999957159, "y": -17.56000000005588, "z": -1.0},
  {"Altitude": 1.100000023841858, "DroneId": "Follower", "Latitude": 22.54299957878918, "LeftH": 0, "LeftV": 0, "Longitude": 113.95873537508261, "Pitch": 10.6, "RightH": 0, "RightV": 0, "Roll": -0.6, "Timestamp": 23562, "Yaw": 0.0, "velocityX": 0.20000000298023224, "velocityY": 0.0, "velocityZ": 0.0, "x": 20.319999999832362, "y": -17.56000000005588, "z": -1.0},
  {"Altitude": 1.100000023841858, "DroneId": "Follower", "Latitude": 22.54299976455605, "LeftH": 0, "LeftV": 0, "Longitude": 113.95873545123646, "Pitch": 15.0, "RightH": 0, "RightV": 0, "Roll": -0.7, "Timestamp": 23721, "Yaw": -0.1, "velocityX": 0.0, "velocityY": 0.0, "velocityZ": 0.0, "x": 20.34999999962747, "y": -17.550000000046566, "z": -1.0},
  {"Altitude": 1.100000023841858, "DroneId": "Follower", "Latitude": 22.54299923653744, "LeftH": 0, "LeftV": 0, "Longitude": 113.95873546665274, "Pitch": 0.0, "RightH": 0, "RightV": 0, "Roll": -0.4, "Timestamp": 23881, "Yaw": 0.0, "velocityX": -0.4000000059604645, "velocityY": 0.0, "velocityZ": 0.0, "x": 20.28999999957159, "y": -17.540000000037253, "z": -1.0},
  {"Altitude": 1.100000023841858, "DroneId": "Follower", "Latitude": 22.542998844614228, "LeftH": 0, "LeftV": 0, "Longitude": 113.95873545854575, "Pitch": -1.5, "RightH": 0, "RightV": 0, "Roll": -0.5, "Timestamp": 24042, "Yaw": 0.0, "velocityX": -0.4000000059604645, "velocityY": 0.0, "velocityZ": 0.0, "x": 20.239999999757856, "y": -17.540000000037253, "z": -1.0},
  {"Altitude": 1.100000023841858, "DroneId": "Follower", "Latitude": 22.542998180294617, "LeftH": 0, "LeftV": 0, "Longitude": 113.9587354128349, "Pitch": -13.4, "RightH": 0, "RightV": 0, "Roll": -0.5, "Timestamp": 24201, "Yaw": 0.0, "velocityX": -0.20000000298023224, "velocityY": 0.0, "velocityZ": 0.0, "x": 20.169999999925494, "y": -17.550000000046566, "z": -1.0},
  {"Altitude": 1.100000023841858, "DroneId": "Follower", "Latitude": 22.542998044593304, "LeftH": 0, "LeftV": 0, "Longitude": 113.95873537345007, "Pitch": -14.5, "RightH": 0, "RightV": 0, "Roll": -0.5, "Timestamp": 24361, "Yaw": 0.0, "velocityX": 0.0, "velocityY": 0.0, "velocityZ": 0.0, "x": 20.149999999906868, "y": -17.550000000046566, "z": -1.0},
  {"Altitude": 1.100000023841858, "DroneId": "Follower", "Latitude": 22.54299842666446, "LeftH": 0, "LeftV": 0, "Longitude": 113.95873526501666, "Pitch": -0.4, "RightH": 0, "RightV": 0, "Roll": -0.1, "Timestamp": 24522, "Yaw": 0.0, "velocityX": 0.30000001192092896, "velocityY": 0.0, "velocityZ": 0.0, "x": 20.199999999720603, "y": -17.56000000005588, "z": -1.0},
  {"Altitude": 1.100000023841858, "DroneId": "Follower", "Latitude": 22.54299907981271, "LeftH": 0, "LeftV": 0, "Longitude": 113.95873513717837, "Pitch": 5.6, "RightH": 0, "RightV": 0, "Roll": 0.0, "Timestamp": 24682, "Yaw": 0.0, "velocityX": 0.30000001192092896, "velocityY": 0.0, "velocityZ": 0.0, "x": 20.269999999552965, "y": -17.580000000074506, "z": -1.0},
  {"Altitude": 1.100000023841858, "DroneId": "Follower", "Latitude": 22.542999347120308, "LeftH": 0, "LeftV": 0, "Longitude": 113.95873507024461, "Pitch": 8.2, "RightH": 0, "RightV": 0, "Roll": 0.1, "Timestamp": 24843, "Yaw": 0.0, "velocityX": 0.20000000298023224, "velocityY": 0.0, "velocityZ": 0.0, "x": 20.299999999813735, "y": -17.59000000008382, "z": -1.0},
  {"Altitude": 1.100000023841858, "DroneId": "Follower", "Latitude": 22.54299945722342, "LeftH": 0, "LeftV": 0, "Longitude": 113.95873494546734, "Pitch": 11.9, "RightH": 0, "RightV": 0, "Roll": 1.3, "Timestamp": 25003, "Yaw": 0.0, "velocityX": -0.10000000149011612, "velocityY": 0.0, "velocityZ": 0.0, "x": 20.309999999590218, "y": -17.600000000093132, "z": -1.0},
  {"Altitude": 1.100000023841858, "DroneId": "Follower", "Latitude": 22.54299922474925, "LeftH": 0, "LeftV": 0, "Longitude": 113.95873490626805, "Pitch": 4.5, "RightH": 0, "RightV": 0, "Roll": 1.1, "Timestamp": 25163, "Yaw": 0.0, "velocityX": -0.30000001192092896, "velocityY": 0.0, "velocityZ": 0.0, "x": 20.27999999979511, "y": -17.600000000093132, "z": -1.0},
  {"Altitude": 1.100000023841858, "DroneId": "Follower", "Latitude": 22.54299858433157, "LeftH": 0, "LeftV": 0, "Longitude": 113.95873487909013, "Pitch": -7.3, "RightH": 0, "RightV": 0, "Roll": 0.5, "Timestamp": 25323, "Yaw": 0.0, "velocityX": -0.30000001192092896, "velocityY": 0.0, "velocityZ": 0.0, "x": 20.209999999962747, "y": -17.600000000093132, "z": -1.0},
  {"Altitude": 1.100000023841858, "DroneId": "Follower", "Latitude": 22.542998225733996, "LeftH": 0, "LeftV": 0, "Longitude": 113.95873489344898, "Pitch": -4.3, "RightH": 0, "RightV": 0, "Roll": 0.7, "Timestamp": 25484, "Yaw": 0.0, "velocityX": 0.0, "velocityY": 0.0, "velocityZ": 0.0, "x": 20.169999999925494, "y": -17.600000000093132, "z": -1.0},
  {"Altitude": 1.100000023841858, "DroneId": "Follower", "Latitude": 22.542998201506514, "LeftH": 0, "LeftV": 0, "Longitude": 113.95873491508, "Pitch": 2.1, "RightH": 0, "RightV": 0, "Roll": 4.0, "Timestamp": 25643, "Yaw": 0.0, "velocityX": 0.0, "velocityY": 0.0, "velocityZ": 0.0, "x": 20.169999999925494, "y": -17.600000000093132, "z": -1.0},
  {"Altitude": 1.100000023841858, "DroneId": "Follower", "Latitude": 22.542998108691613, "LeftH": 0, "LeftV": 0, "Longitude": 113.95873514686225, "Pitch": 12.9, "RightH": 0, "RightV": 0, "Roll": 4.7, "Timestamp": 25803, "Yaw": 0.5, "velocityX": -0.10000000149011612, "velocityY": 0.20000000298023224, "velocityZ": 0.0, "x": 20.15999999968335, "y": -17.580000000074506, "z": -1.0},
  {"Altitude": 1.100000023841858, "DroneId": "Follower", "Latitude": 22.54299743942027, "LeftH": 0, "LeftV": 0, "Longitude": 113.95873571880452, "Pitch": 17.6, "RightH": 0, "RightV": 0, "Roll": 8.9, "Timestamp": 25964, "Yaw": 1.2, "velocityX": -0.6000000238418579, "velocityY": 0.4000000059604645, "velocityZ": 0.0, "x": 20.08999999985099, "y": -17.520000000018626, "z": -1.0},
  {"Altitude": 1.100000023841858, "DroneId": "Follower", "Latitude": 22.542996745321755, "LeftH": 0, "LeftV": 0, "Longitude": 113.9587361854671, "Pitch": 15.1, "RightH": 0, "RightV": 0, "Roll": 1.2, "Timestamp": 26125, "Yaw": 0.7, "velocityX": -0.8999999761581421, "velocityY": 0.5, "velocityZ": 0.0, "x": 20.009999999776483, "y": -17.470000000088476, "z": -1.0},
  {"Altitude": 1.100000023841858, "DroneId": "Follower", "Latitude": 22.54299474088313, "LeftH": 0, "LeftV": 0, "Longitude": 113.95873719190368, "Pitch": 0.5, "RightH": 0, "RightV": 0, "Roll": -3.0, "Timestamp": 26284, "Yaw": 0.2, "velocityX": -1.2000000476837158, "velocityY": 0.4000000059604645, "velocityZ": 0.0, "x": 19.78999999957159, "y": -17.35999999998603, "z": -1.0},
  {"Altitude": 1.100000023841858, "DroneId": "Follower", "Latitude": 22.542993637247644, "LeftH": 0, "LeftV": 0, "Longitude": 113.95873762183435, "Pitch": 0.6, "RightH": 0, "RightV": 0, "Roll": -1.8, "Timestamp": 26444, "Yaw": 0.0, "velocityX": -1.2000000476837158, "velocityY": 0.4000000059604645, "velocityZ": 0.0, "x": 19.669999999925494, "y": -17.31000000005588, "z": -1.0},
