[{"Altitude" : 1.100000023841858, "Compass" : 0.0, "DroneId" : "DJI-Mavic", "Latitude" : 49.22658215143861, "Longitude" : 16.596610802098215, "Pitch" : 1.0, "Roll" : 0.0, "Timestamp" : 1670605553407, "Yaw" : 0.0, "velocityX" : 0.0, "velocityY" : 0.0, "velocityZ" : 0.0},
{"Altitude" : 1.100000023841858, "Compass" : 0.0, "DroneId" : "DJI-Mavic", "Latitude" : 49.226582156270396, "Longitude" : 16.596610796519762, "Pitch" : 1.0, "Roll" : 0.0, "Timestamp" : 1670605553688, "Yaw" : 0.0, "velocityX" : 0.0, "velocityY" : 0.0, "velocityZ" : 0.0},
{"Altitude" : 1.100000023841858, "Compass" : 0.0, "DroneId" : "DJI-Mavic", "Latitude" : 49.22658215935452, "Longitude" : 16.596610792846704, "Pitch" : 1.0, "Roll" : 0.0, "Timestamp" : 1670605553888, "Yaw" : 0.0, "velocityX" : 0.0, "velocityY" : 0.0, "velocityZ" : 0.0},
{"Altitude" : 1.100000023841858, "Compass" : 0.0, "DroneId" : "DJI-Mavic", "Latitude" : 49.22658216238724, "Longitude" : 16.59661078935074, "Pitch" : 1.0, "Roll" : 0.0, "Timestamp" : 1670605554089, "Yaw" : 0.0, "velocityX" : 0.0, "velocityY" : 0.0, "velocityZ" : 0.0},
{"Altitude" : 1.100000023841858, "Compass" : 0.0, "DroneId" : "DJI-Mavic", "Latitude" : 49.226582165300016, "Longitude" : 16.596610785940047, "Pitch" : 0.5, "Roll" : 0.0, "Timestamp" : 1670605554288, "Yaw" : 0.0, "velocityX" : 0.0, "velocityY" : 0.0, "velocityZ" : 0.0},
{"Altitude" : 1.100000023841858, "Compass" : 0.0, "DroneId" : "DJI-Mavic", "Latitude" : 49.22658228833073, "Longitude" : 16.596610782932732, "Pitch" : -16.3, "Roll" : 0.1, "Timestamp" : 1670605554488, "Yaw" : 0.0, "velocityX" : 0.20000000298023224, "velocityY" : 0.0, "velocityZ" : 0.0},
{"Altitude" : 1.100000023841858, "Compass" : 0.0, "DroneId" : "DJI-Mavic", "Latitude" : 49.226583288667456, "Longitude" : 16.59661078112572, "Pitch" : -15.8, "Roll" : 0.1, "Timestamp" : 1670605554689, "Yaw" : 0.0, "velocityX" : 0.800000011920929, "velocityY" : 0.0, "velocityZ" : 0.0},
{"Altitude" : 1.100000023841858, "Compass" : 0.0, "DroneId" : "DJI-Mavic", "Latitude" : 49.226585380144684, "Longitude" : 16.596610780302562, "Pitch" : -14.7, "Roll" : 0.1, "Timestamp" : 1670605554890, "Yaw" : 0.0, "velocityX" : 1.399999976158142, "velocityY" : 0.0, "velocityZ" : 0.0},
{"Altitude" : 1.100000023841858, "Compass" : 0.0, "DroneId" : "DJI-Mavic", "Latitude" : 49.22658845656585, "Longitude" : 16.596610780391813, "Pitch" : -13.7, "Roll" : 0.1, "Timestamp" : 1670605555091, "Yaw" : 0.0, "velocityX" : 1.899999976158142, "velocityY" : 0.0, "velocityZ" : 0.0},
{"Altitude" : 1.100000023841858, "Compass" : 0.0, "DroneId" : "DJI-Mavic", "Latitude" : 49.226592442963295, "Longitude" : 16.59661078128853, "Pitch" : -12.9, "Roll" : 0.0, "Timestamp" : 1670605555291, "Yaw" : 0.0, "velocityX" : 2.4000000953674316, "velocityY" : 0.0, "velocityZ" : 0.0},
{"Altitude" : 1.100000023841858, "Compass" : 0.0, "DroneId" : "DJI-Mavic", "Latitude" : 49.22659726521529, "Longitude" : 16.59661078292501, "Pitch" : -12.1, "Roll" : 0.0, "Timestamp" : 1670605555492, "Yaw" : 0.0, "velocityX" : 2.9000000953674316, "velocityY" : 0.0, "velocityZ" : 0.0},
{"Altitude" : 1.100000023841858, "Compass" : 0.0, "DroneId" : "DJI-Mavic", "Latitude" : 49.22660285284112, "Longitude" : 16.596610785215514, "Pitch" : -11.4, "Roll" : 0.0, "Timestamp" : 1670605555692, "Yaw" : 0.0, "velocityX" : 3.299999952316284, "velocityY" : 0.0, "velocityZ" : 0.0},
{"Altitude" : 1.100000023841858, "Compass" : 0.0, "DroneId" : "DJI-Mavic", "Latitude" : 49.22660914173603, "Longitude" : 16.596610788049723, "Pitch" : -10.9, "Roll" : 0.0, "Timestamp" : 1670605555893, "Yaw" : 0.0, "velocityX" : 3.5999999046325684, "velocityY" : 0.0, "velocityZ" : 0.0},
{"Altitude" : 1.100000023841858, "Compass" : 0.0, "DroneId" : "DJI-Mavic", "Latitude" : 49.22661607560199, "Longitude" : 16.59661079136602, "Pitch" : -10.4, "Roll" : 0.0, "Timestamp" : 1670605556093, "Yaw" : 0.0, "velocityX" : 4.0, "velocityY" : 0.0, "velocityZ" : 0.0},
{"Altitude" : 1.100000023841858, "Compass" : 0.0, "DroneId" : "DJI-Mavic", "Latitude" : 49.226623602668596, "Longitude" : 16.596610795138872, "Pitch" : -9.9, "Roll" : 0.0, "Timestamp" : 1670605556293, "Yaw" : 0.0, "velocityX" : 4.300000190734863, "velocityY" : 0.0, "velocityZ" : 0.0},
{"Altitude" : 1.100000023841858, "Compass" : 0.0, "DroneId" : "DJI-Mavic", "Latitude" : 49.22663167492208, "Longitude" : 16.59661079924952, "Pitch" : -9.6, "Roll" : 0.0, "Timestamp" : 1670605556493, "Yaw" : 0.0, "velocityX" : 4.599999904632568, "velocityY" : 0.0, "velocityZ" : 0.0},
{"Altitude" : 1.100000023841858, "Compass" : 0.0, "DroneId" : "DJI-Mavic", "Latitude" : 49.226640248589355, "Longitude" : 16.596610803675002, "Pitch" : -9.3, "Roll" : 0.0, "Timestamp" : 1670605556694, "Yaw" : 0.0, "velocityX" : 4.900000095367432, "velocityY" : 0.0, "velocityZ" : 0.0},
{"Altitude" : 1.100000023841858, "Compass" : 0.0, "DroneId" : "DJI-Mavic", "Latitude" : 49.22664928401805, "Longitude" : 16.596610808382525, "Pitch" : -9.0, "Roll" : 0.0, "Timestamp" : 1670605556895, "Yaw" : 0.0, "velocityX" : 5.099999904632568, "velocityY" : 0.0, "velocityZ" : 0.0},
{"Altitude" : 1.100000023841858, "Compass" : 0.0, "DroneId" : "DJI-Mavic", "Latitude" : 49.22665874507254, "Longitude" : 16.596610813332735, "Pitch" : -8.8, "Roll" : 0.0, "Timestamp" : 1670605557096, "Yaw" : 0.0, "velocityX" : 5.300000190734863, "velocityY" : 0.0, "velocityZ" : 0.0},
{"Altitude" : 1.100000023841858, "Compass" : 0.0, "DroneId" : "DJI-Mavic", "Latitude" : 49.22666859871846, "Longitude" : 16.596610818473156, "Pitch" : -8.6, "Roll" : 0.0, "Timestamp" : 1670605557296, "Yaw" : 0.0, "velocityX" : 5.5, "velocityY" : 0.0, "velocityZ" : 0.0},
{"Altitude" : 1.100000023841858, "Compass" : 0.0, "DroneId" : "DJI-Mavic", "Latitude" : 49.22667881446587, "Longitude" : 16.59661082371525, "Pitch" : -8.4, "Roll" : 0.0, "Timestamp" : 1670605557497, "Yaw" : 0.0, "velocityX" : 5.699999809265137, "velocityY" : 0.0, "velocityZ" : 0.0},
{"Altitude" : 1.100000023841858, "Compass" : 0.0, "DroneId" : "DJI-Mavic", "Latitude" : 49.22668936399226, "Longitude" : 16.59661082921057, "Pitch" : -8.3, "Roll" : 0.0, "Timestamp" : 1670605557696, "Yaw" : 0.0, "velocityX" : 5.900000095367432, "velocityY" : 0.0, "velocityZ" : 0.0},
{"Altitude" : 1.100000023841858, "Compass" : 0.0, "DroneId" : "DJI-Mavic", "Latitude" : 49.226700221305315, "Longitude" : 16.596610834715023, "Pitch" : -8.1, "Roll" : 0.0, "Timestamp" : 1670605557897, "Yaw" : 0.0, "velocityX" : 6.099999904632568, "velocityY" : 0.0, "velocityZ" : 0.0},
{"Altitude" : 1.100000023841858, "Compass" : 0.0, "DroneId" : "DJI-Mavic", "Latitude" : 49.22671136237463, "Longitude" : 16.596610840327706, "Pitch" : -8.0, "Roll" : 0.0, "Timestamp" : 1670605558098, "Yaw" : 0.0, "velocityX" : 6.199999809265137, "velocityY" : 0.0, "velocityZ" : 0.0},
{"Altitude" : 1.100000023841858, "Compass" : 0.0, "DroneId" : "DJI-Mavic", "Latitude" : 49.22672276514015, "Longitude" : 16.59661084609196, "Pitch" : -7.9, "Roll" : 0.0, "Timestamp" : 1670605558297, "Yaw" : 0.0, "velocityX" : 6.400000095367432, "velocityY" : 0.0, "velocityZ" : 0.0},
{"Altitude" : 1.100000023841858, "Compass" : 0.0, "DroneId" : "DJI-Mavic", "Latitude" : 49.2267344092724, "Longitude" : 16.596610852144813, "Pitch" : -5.6, "Roll" : 0.1, "Timestamp" : 1670605558497, "Yaw" : 0.0, "velocityX" : 6.5, "velocityY" : 0.0, "velocityZ" : 0.0},
{"Altitude" : 1.100000023841858, "Compass" : 0.0, "DroneId" : "DJI-Mavic", "Latitude" : 49.22674598072219, "Longitude" : 16.59661086142729, "Pitch" : 21.3, "Roll" : 0.0, "Timestamp" : 1670605558697, "Yaw" : 0.0, "velocityX" : 6.099999904632568, "velocityY" : 0.0, "velocityZ" : 0.0},
{"Altitude" : 1.100000023841858, "Compass" : 0.0, "DroneId" : "DJI-Mavic", "Latitude" : 49.2267562201745, "Longitude" : 16.596610865941344, "Pitch" : 19.5, "Roll" : 0.0, "Timestamp" : 1670605558898, "Yaw" : 0.0, "velocityX" : 5.199999809265137, "velocityY" : 0.0, "velocityZ" : 0.0},
{"Altitude" : 1.100000023841858, "Compass" : 0.0, "DroneId" : "DJI-Mavic", "Latitude" : 49.22676503579105, "Longitude" : 16.596610864886756, "Pitch" : 19.7, "Roll" : 0.0, "Timestamp" : 1670605559099, "Yaw" : 0.0, "velocityX" : 4.5, "velocityY" : 0.0, "velocityZ" : 0.0},
{"Altitude" : 1.100000023841858, "Compass" : 0.0, "DroneId" : "DJI-Mavic", "Latitude" : 49.22677574468079, "Longitude" : 16.596610855437294, "Pitch" : 19.8, "Roll" : 0.0, "Timestamp" : 1670605559299, "Yaw" : 0.0, "velocityX" : 3.4000000953674316, "velocityY" : 0.0, "velocityZ" : 0.0},
{"Altitude" : 1.100000023841858, "Compass" : 0.0, "DroneId" : "DJI-Mavic", "Latitude" : 49.22677866328709, "Longitude" : 16.59661085075484, "Pitch" : 19.8, "Roll" : 0.0, "Timestamp" : 1670605559499, "Yaw" : 0.0, "velocityX" : 3.0, "velocityY" : 0.0, "velocityZ" : 0.0},
{"Altitude" : 1.100000023841858, "Compass" : 0.0, "DroneId" : "DJI-Mavic", "Latitude" : 49.22678354810605, "Longitude" : 16.59661084025051, "Pitch" : 19.9, "Roll" : 0.0, "Timestamp" : 1670605559699, "Yaw" : 0.0, "velocityX" : 2.299999952316284, "velocityY" : 0.0, "velocityZ" : 0.0},
{"Altitude" : 1.100000023841858, "Compass" : 0.0, "DroneId" : "DJI-Mavic", "Latitude" : 49.2267871843187, "Longitude" : 16.596610829924696, "Pitch" : 19.9, "Roll" : 0.1, "Timestamp" : 1670605559900, "Yaw" : 0.0, "velocityX" : 1.600000023841858, "velocityY" : 0.0, "velocityZ" : 0.0},
{"Altitude" : 1.100000023841858, "Compass" : 0.0, "DroneId" : "DJI-Mavic", "Latitude" : 49.22678959140642, "Longitude" : 16.596610822608067, "Pitch" : 19.6, "Roll" : 0.1, "Timestamp" : 1670605560100, "Yaw" : 0.0, "velocityX" : 1.0, "velocityY" : 0.0, "velocityZ" : 0.0},
{"Altitude" : 1.100000023841858, "Compass" : 0.0, "DroneId" : "DJI-Mavic", "Latitude" : 49.22679087803307, "Longitude" : 16.59661082167411, "Pitch" : 9.7, "Roll" : 0.1, "Timestamp" : 1670605560300, "Yaw" : 0.0, "velocityX" : 0.4000000059604645, "velocityY" : 0.0, "velocityZ" : 0.0},
{"Altitude" : 1.100000023841858, "Compass" : 0.0, "DroneId" : "DJI-Mavic", "Latitude" : 49.22679147081822, "Longitude" : 16.596610825209442, "Pitch" : 5.4, "Roll" : 0.1, "Timestamp" : 1670605560501, "Yaw" : 0.0, "velocityX" : 0.20000000298023224, "velocityY" : 0.0, "velocityZ" : 0.0},
{"Altitude" : 1.100000023841858, "Compass" : 0.0, "DroneId" : "DJI-Mavic", "Latitude" : 49.226791779795725, "Longitude" : 16.59661083077152, "Pitch" : 3.1, "Roll" : 0.0, "Timestamp" : 1670605560701, "Yaw" : 0.0, "velocityX" : 0.10000000149011612, "velocityY" : 0.0, "velocityZ" : 0.0},
{"Altitude" : 1.100000023841858, "Compass" : 0.0, "DroneId" : "DJI-Mavic", "Latitude" : 49.226791936828874, "Longitude" : 16.596610837215795, "Pitch" : 2.0, "Roll" : 0.0, "Timestamp" : 1670605560902, "Yaw" : 0.0, "velocityX" : 0.0, "velocityY" : 0.0, "velocityZ" : 0.0},
{"Altitude" : 1.100000023841858, "Compass" : 0.0, "DroneId" : "DJI-Mavic", "Latitude" : 49.226792021213846, "Longitude" : 16.5966108440077, "Pitch" : 1.6, "Roll" : 0.0, "Timestamp" : 1670605561102, "Yaw" : 0.0, "velocityX" : 0.0, "velocityY" : 0.0, "velocityZ" : 0.0},
{"Altitude" : 1.100000023841858, "Compass" : 0.0, "DroneId" : "DJI-Mavic", "Latitude" : 49.22679206601927, "Longitude" : 16.59661085031423, "Pitch" : 1.3, "Roll" : 0.0, "Timestamp" : 1670605561301, "Yaw" : 0.0, "velocityX" : 0.0, "velocityY" : 0.0, "velocityZ" : 0.0},
{"Altitude" : 1.100000023841858, "Compass" : 0.0, "DroneId" : "DJI-Mavic", "Latitude" : 49.22679208733397, "Longitude" : 16.59661085562051, "Pitch" : 1.2, "Roll" : 0.0, "Timestamp" : 1670605561501, "Yaw" : 0.0, "velocityX" : 0.0, "velocityY" : 0.0, "velocityZ" : 0.0},
{"Altitude" : 1.100000023841858, "Compass" : 0.0, "DroneId" : "DJI-Mavic", "Latitude" : 49.22679209588384, "Longitude" : 16.59661085980519, "Pitch" : 1.1, "Roll" : 0.0, "Timestamp" : 1670605561701, "Yaw" : 0.0, "velocityX" : 0.0, "velocityY" : 0.0, "velocityZ" : 0.0},
{"Altitude" : 1.100000023841858, "Compass" : 0.0, "DroneId" : "DJI-Mavic", "Latitude" : 49.22679209754584, "Longitude" : 16.596610862920745, "Pitch" : 1.0, "Roll" : 0.0, "Timestamp" : 1670605561902, "Yaw" : 0.0, "velocityX" : 0.0, "velocityY" : 0.0, "velocityZ" : 0.0},
{"Altitude" : 1.100000023841858, "Compass" : 0.0, "DroneId" : "DJI-Mavic", "Latitude" : 49.226792095541164, "Longitude" : 16.596610865114748, "Pitch" : 1.0, "Roll" : 0.0, "Timestamp" : 1670605562101, "Yaw" : 0.0, "velocityX" : 0.0, "velocityY" : 0.0, "velocityZ" : 0.0},
{"Altitude" : 1.100000023841858, "Compass" : 0.0, "DroneId" : "DJI-Mavic", "Latitude" : 49.22679209180593, "Longitude" : 16.59661086655118, "Pitch" : 1.0, "Roll" : 0.0, "Timestamp" : 1670605562301, "Yaw" : 0.0, "velocityX" : 0.0, "velocityY" : 0.0, "velocityZ" : 0.0},
{"Altitude" : 1.100000023841858, "Compass" : 0.0, "DroneId" : "DJI-Mavic", "Latitude" : 49.22679208769378, "Longitude" : 16.59661086739402, "Pitch" : 1.0, "Roll" : 0.0, "Timestamp" : 1670605562501, "Yaw" : 0.0, "velocityX" : 0.0, "velocityY" : 0.0, "velocityZ" : 0.0},
{"Altitude" : 1.100000023841858, "Compass" : 0.0, "DroneId" : "DJI-Mavic", "Latitude" : 49.22679208358162, "Longitude" : 16.596610867781006, "Pitch" : 1.0, "Roll" : 0.0, "Timestamp" : 1670605562701, "Yaw" : 0.0, "velocityX" : 0.0, "velocityY" : 0.0, "velocityZ" : 0.0},
{"Altitude" : 1.100000023841858, "Compass" : 0.0, "DroneId" : "DJI-Mavic", "Latitude" : 49.22679207946946, "Longitude" : 16.59661086783676, "Pitch" : 1.0, "Roll" : 0.0, "Timestamp" : 1670605562901, "Yaw" : 0.0, "velocityX" : 0.0, "velocityY" : 0.0, "velocityZ" : 0.0},
{"Altitude" : 1.100000023841858, "Compass" : 0.0, "DroneId" : "DJI-Mavic", "Latitude" : 49.2267920753573, "Longitude" : 16.59661086762359, "Pitch" : 1.0, "Roll" : 0.0, "Timestamp" : 1670605563101, "Yaw" : 0.0, "velocityX" : 0.0, "velocityY" : 0.0, "velocityZ" : 0.0},
{"Altitude" : 1.100000023841858, "Compass" : 0.0, "DroneId" : "DJI-Mavic", "Latitude" : 49.22679206918905, "Longitude" : 16.596610867013595, "Pitch" : 1.0, "Roll" : 0.0, "Timestamp" : 1670605563301, "Yaw" : 0.0, "velocityX" : 0.0, "velocityY" : 0.0, "velocityZ" : 0.0},
{"Altitude" : 1.100000023841858, "Compass" : 0.0, "DroneId" : "DJI-Mavic", "Latitude" : 49.226792067132976, "Longitude" : 16.596610866751234, "Pitch" : 1.0, "Roll" : 0.0, "Timestamp" : 1670605563501, "Yaw" : 0.0, "velocityX" : 0.0, "velocityY" : 0.0, "velocityZ" : 0.0},
{"Altitude" : 1.100000023841858, "Compass" : 0.0, "DroneId" : "DJI-Mavic", "Latitude" : 49.22679206355197, "Longitude" : 16.59661086622651, "Pitch" : 1.0, "Roll" : 0.0, "Timestamp" : 1670605563702, "Yaw" : 0.0, "velocityX" : 0.0, "velocityY" : 0.0, "velocityZ" : 0.0},
{"Altitude" : 1.100000023841858, "Compass" : 0.0, "DroneId" : "DJI-Mavic", "Latitude" : 49.22679206081053, "Longitude" : 16.596610865701784, "Pitch" : 1.0, "Roll" : 0.0, "Timestamp" : 1670605563902, "Yaw" : 0.0, "velocityX" : 0.0, "velocityY" : 0.0, "velocityZ" : 0.0},
{"Altitude" : 1.100000023841858, "Compass" : 0.0, "DroneId" : "DJI-Mavic", "Latitude" : 49.226792056698365, "Longitude" : 16.59661086468841, "Pitch" : 1.0, "Roll" : 0.0, "Timestamp" : 1670605564103, "Yaw" : 0.0, "velocityX" : 0.0, "velocityY" : 0.0, "velocityZ" : 0.0},
{"Altitude" : 1.100000023841858, "Compass" : 0.0, "DroneId" : "DJI-Mavic", "Latitude" : 49.22679205532765, "Longitude" : 16.596610864294867, "Pitch" : 1.0, "Roll" : 0.0, "Timestamp" : 1670605564302, "Yaw" : 0.0, "velocityX" : 0.0, "velocityY" : 0.0, "velocityZ" : 0.0},
{"Altitude" : 1.100000023841858, "Compass" : 0.0, "DroneId" : "DJI-Mavic", "Latitude" : 49.22679205258621, "Longitude" : 16.596610863507777, "Pitch" : 1.0, "Roll" : 0.0, "Timestamp" : 1670605564502, "Yaw" : 0.0, "velocityX" : 0.0, "velocityY" : 0.0, "velocityZ" : 0.0},
{"Altitude" : 1.100000023841858, "Compass" : 0.0, "DroneId" : "DJI-Mavic", "Latitude" : 49.22679204984477, "Longitude" : 16.59661086294042, "Pitch" : 1.0, "Roll" : 0.0, "Timestamp" : 1670605564703, "Yaw" : 0.0, "velocityX" : 0.0, "velocityY" : 0.0, "velocityZ" : 0.0},
{"Altitude" : 1.100000023841858, "Compass" : 0.0, "DroneId" : "DJI-Mavic", "Latitude" : 49.22679204710333, "Longitude" : 16.596610862415694, "Pitch" : 1.0, "Roll" : 0.0, "Timestamp" : 1670605564903, "Yaw" : 0.0, "velocityX" : 0.0, "velocityY" : 0.0, "velocityZ" : 0.0},
{"Altitude" : 1.100000023841858, "Compass" : 0.0, "DroneId" : "DJI-Mavic", "Latitude" : 49.226792042991164, "Longitude" : 16.59661086162861, "Pitch" : 1.0, "Roll" : 0.0, "Timestamp" : 1670605565106, "Yaw" : 0.0, "velocityX" : 0.0, "velocityY" : 0.0, "velocityZ" : 0.0},
{"Altitude" : 1.100000023841858, "Compass" : 0.0, "DroneId" : "DJI-Mavic", "Latitude" : 49.22679204024973, "Longitude" : 16.596610861103883, "Pitch" : 1.0, "Roll" : 0.0, "Timestamp" : 1670605565372, "Yaw" : 0.0, "velocityX" : 0.0, "velocityY" : 0.0, "velocityZ" : 0.0},
{"Altitude" : 1.100000023841858, "Compass" : 0.0, "DroneId" : "DJI-Mavic", "Latitude" : 49.226792037508275, "Longitude" : 16.59661086057916, "Pitch" : 1.0, "Roll" : 0.0, "Timestamp" : 1670605565573, "Yaw" : 0.0, "velocityX" : 0.0, "velocityY" : 0.0, "velocityZ" : 0.0},
{"Altitude" : 1.100000023841858, "Compass" : 0.0, "DroneId" : "DJI-Mavic", "Latitude" : 49.226792034766845, "Longitude" : 16.596610860054433, "Pitch" : 1.0, "Roll" : 0.0, "Timestamp" : 1670605565774, "Yaw" : 0.0, "velocityX" : 0.0, "velocityY" : 0.0, "velocityZ" : 0.0},
{"Altitude" : 1.100000023841858, "Compass" : 0.0, "DroneId" : "DJI-Mavic", "Latitude" : 49.22679203307057, "Longitude" : 16.596610859529708, "Pitch" : 1.0, "Roll" : 0.0, "Timestamp" : 1670605565974, "Yaw" : 0.0, "velocityX" : 0.0, "velocityY" : 0.0, "velocityZ" : 0.0},
{"Altitude" : 1.100000023841858, "Compass" : 0.0, "DroneId" : "DJI-Mavic", "Latitude" : 49.22679203169985, "Longitude" : 16.596610859004986, "Pitch" : 1.0, "Roll" : 0.0, "Timestamp" : 1670605566174, "Yaw" : 0.0, "velocityX" : 0.0, "velocityY" : 0.0, "velocityZ" : 0.0},
{"Altitude" : 1.100000023841858, "Compass" : 0.0, "DroneId" : "DJI-Mavic", "Latitude" : 49.226792030329136, "Longitude" : 16.59661085848026, "Pitch" : 1.0, "Roll" : 0.0, "Timestamp" : 1670605566374, "Yaw" : 0.0, "velocityX" : 0.0, "velocityY" : 0.0, "velocityZ" : 0.0},
{"Altitude" : 1.100000023841858, "Compass" : 0.0, "DroneId" : "DJI-Mavic", "Latitude" : 49.22679202895841, "Longitude" : 16.59661085795554, "Pitch" : 1.0, "Roll" : 0.0, "Timestamp" : 1670605566574, "Yaw" : 0.0, "velocityX" : 0.0, "velocityY" : 0.0, "velocityZ" : 0.0},
{"Altitude" : 1.100000023841858, "Compass" : 0.0, "DroneId" : "DJI-Mavic", "Latitude" : 49.22679202681666, "Longitude" : 16.596610857430814, "Pitch" : 1.0, "Roll" : 0.0, "Timestamp" : 1670605566775, "Yaw" : 0.0, "velocityX" : 0.0, "velocityY" : 0.0, "velocityZ" : 0.0},
{"Altitude" : 1.100000023841858, "Compass" : 0.0, "DroneId" : "DJI-Mavic", "Latitude" : 49.22679202465777, "Longitude" : 16.59661085690609, "Pitch" : 1.0, "Roll" : 0.0, "Timestamp" : 1670605566976, "Yaw" : 0.0, "velocityX" : 0.0, "velocityY" : 0.0, "velocityZ" : 0.0},
{"Altitude" : 1.100000023841858, "Compass" : 0.0, "DroneId" : "DJI-Mavic", "Latitude" : 49.226792023287054, "Longitude" : 16.596610856381364, "Pitch" : 1.0, "Roll" : 0.0, "Timestamp" : 1670605567177, "Yaw" : 0.0, "velocityX" : 0.0, "velocityY" : 0.0, "velocityZ" : 0.0},
{"Altitude" : 1.100000023841858, "Compass" : 0.0, "DroneId" : "DJI-Mavic", "Latitude" : 49.22679202191634, "Longitude" : 16.59661085585664, "Pitch" : 1.0, "Roll" : 0.0, "Timestamp" : 1670605567378, "Yaw" : 0.0, "velocityX" : 0.0, "velocityY" : 0.0, "velocityZ" : 0.0},
{"Altitude" : 1.100000023841858, "Compass" : 0.0, "DroneId" : "DJI-Mavic", "Latitude" : 49.226792020545616, "Longitude" : 16.596610855331914, "Pitch" : 1.0, "Roll" : 0.0, "Timestamp" : 1670605567579, "Yaw" : 0.0, "velocityX" : 0.0, "velocityY" : 0.0, "velocityZ" : 0.0},
{"Altitude" : 1.100000023841858, "Compass" : 0.0, "DroneId" : "DJI-Mavic", "Latitude" : 49.2267920191749, "Longitude" : 16.59661085480719, "Pitch" : 1.0, "Roll" : 0.0, "Timestamp" : 1670605567779, "Yaw" : 0.0, "velocityX" : 0.0, "velocityY" : 0.0, "velocityZ" : 0.0}]
